[{"id": "VkYg-L1v7_MkTs2vd4GGMA", "alias": "bear-burgers-brooklyn", "name": "Bear Burgers", "image_url": "https://s3-media3.fl.yelpcdn.com/bphoto/8La1rT1srJxpuMgmJulGEg/o.jpg", "is_closed": false, "url": "https://www.yelp.com/biz/bear-burgers-brooklyn?adjust_creative=azSZ1YV457_fpKmHVQM9Bg&utm_campaign=yelp_api_v3&utm_medium=api_v3_business_search&utm_source=azSZ1YV457_fpKmHVQM9Bg", "review_count": 3, "categories": [{"alias": "newamerican", "title": "American (New)"}, {"alias": "burgers", "title": "Burgers"}, {"alias": "sandwiches", "title": "Sandwiches"}], "rating": 4.0, "coordinates": {"latitude": 40.64002, "longitude": -73.90645}, "transactions": ["pickup", "delivery"], "location": {"address1": "8923 Flatlands Ave", "address2": "", "address3": null, "city": "Brooklyn", "zip_code": "11236", "country": "US", "state": "NY", "display_address": ["8923 Flatlands Ave", "Brooklyn, NY 11236"]}, "phone": "+16318762809", "display_phone": "(631) 876-2809", "distance": 613.2395397864694}, {"id": "p6RecYP3IzMacRVVYeBwkQ", "alias": "hot-bagels-brooklyn-7", "name": "Hot Bagels", "image_url": "https://s3-media2.fl.yelpcdn.com/bphoto/LaDs11_OoAc69KdR-dIASQ/o.jpg", "is_closed": false, "url": "https://www.yelp.com/biz/hot-bagels-brooklyn-7?adjust_creative=azSZ1YV457_fpKmHVQM9Bg&utm_campaign=yelp_api_v3&utm_medium=api_v3_business_search&utm_source=azSZ1YV457_fpKmHVQM9Bg", "review_count": 23, "categories": [{"alias": "bagels", "title": "Bagels"}], "rating": 3.5, "coordinates": {"latitude": 40.64203, "longitude": -73.89913}, "transactions": ["pickup", "delivery"], "price": "$", "location": {"address1": "1594 Rockaway Pkwy", "address2": "", "address3": "", "city": "Brooklyn", "zip_code": "11236", "country": "US", "state": "NY", "display_address": ["1594 Rockaway Pkwy", "Brooklyn, NY 11236"]}, "phone": "+17182573068", "display_phone": "(718) 257-3068", "distance": 260.40233722562317}, {"id": "GTYn-iP81HKVKl6FGT0_Cw", "alias": "smashburger-brooklyn-4", "name": "Smashburger", "image_url": "https://s3-media4.fl.yelpcdn.com/bphoto/8mUOj9YNRSsJhJUWBdsAdQ/o.jpg", "is_closed": false, "url": "https://www.yelp.com/biz/smashburger-brooklyn-4?adjust_creative=azSZ1YV457_fpKmHVQM9Bg&utm_campaign=yelp_api_v3&utm_medium=api_v3_business_search&utm_source=azSZ1YV457_fpKmHVQM9Bg", "review_count": 236, "categories": [{"alias": "burgers", "title": "Burgers"}], "rating": 3.0, "coordinates": {"latitude": 40.65172, "longitude": -73.87286}, "transactions": ["pickup", "delivery"], "price": "$$", "location": {"address1": "528 Gateway Dr", "address2": null, "address3": null, "city": "Brooklyn", "zip_code": "11239", "country": "US", "state": "NY", "display_address": ["528 Gateway Dr", "Brooklyn, NY 11239"]}, "phone": "+17182356900", "display_phone": "(718) 235-6900", "distance": 2597.5724634753446}, {"id": "fi8ATHFkHnZgFGJWZUl_BA", "alias": "aunts-et-uncles-brooklyn", "name": "Aunts et Uncles", "image_url": "https://s3-media4.fl.yelpcdn.com/bphoto/H9Le_Et-88rMC7DVN6KByQ/o.jpg", "is_closed": false, "url": "https://www.yelp.com/biz/aunts-et-uncles-brooklyn?adjust_creative=azSZ1YV457_fpKmHVQM9Bg&utm_campaign=yelp_api_v3&utm_medium=api_v3_business_search&utm_source=azSZ1YV457_fpKmHVQM9Bg", "review_count": 151, "categories": [{"alias": "cafes", "title": "Cafes"}], "rating": 4.5, "coordinates": {"latitude": 40.65207, "longitude": -73.94954}, "transactions": ["pickup", "delivery"], "price": "$$", "location": {"address1": "1407 Nostrand Ave", "address2": "", "address3": null, "city": "Brooklyn", "zip_code": "11226", "country": "US", "state": "NY", "display_address": ["1407 Nostrand Ave", "Brooklyn, NY 11226"]}, "phone": "+13472950001", "display_phone": "(347) 295-0001", "distance": 4467.798852586996}, {"id": "i995W2_m6GuiBPnbHP2sPw", "alias": "oasis-diner-restaurant-brooklyn-3", "name": "Oasis Diner Restaurant", "image_url": "https://s3-media1.fl.yelpcdn.com/bphoto/IA4pmUhqow9E6N7T2QN8VQ/o.jpg", "is_closed": false, "url": "https://www.yelp.com/biz/oasis-diner-restaurant-brooklyn-3?adjust_creative=azSZ1YV457_fpKmHVQM9Bg&utm_campaign=yelp_api_v3&utm_medium=api_v3_business_search&utm_source=azSZ1YV457_fpKmHVQM9Bg", "review_count": 195, "categories": [{"alias": "diners", "title": "Diners"}], "rating": 4.0, "coordinates": {"latitude": 40.61786, "longitude": -73.93211}, "transactions": ["pickup", "delivery"], "price": "$$", "location": {"address1": "2132 Flatbush Ave", "address2": "", "address3": "", "city": "Brooklyn", "zip_code": "11234", "country": "US", "state": "NY", "display_address": ["2132 Flatbush Ave", "Brooklyn, NY 11234"]}, "phone": "+17182583461", "display_phone": "(718) 258-3461", "distance": 3683.5126901088447}, {"id": "to_hmXb3Me-SZsiMfYuoGw", "alias": "lebron-restaurant-brooklyn-4", "name": "Lebron Restaurant", "image_url": "https://s3-media4.fl.yelpcdn.com/bphoto/JJH62ITMkheQRgQdESew9A/o.jpg", "is_closed": false, "url": "https://www.yelp.com/biz/lebron-restaurant-brooklyn-4?adjust_creative=azSZ1YV457_fpKmHVQM9Bg&utm_campaign=yelp_api_v3&utm_medium=api_v3_business_search&utm_source=azSZ1YV457_fpKmHVQM9Bg", "review_count": 5, "categories": [{"alias": "latin", "title": "Latin American"}, {"alias": "breakfast_brunch", "title": "Breakfast & Brunch"}], "rating": 2.5, "coordinates": {"latitude": 40.66918689036557, "longitude": -73.91562986710115}, "transactions": ["pickup", "delivery"], "location": {"address1": "1567 Pitkin Ave", "address2": "", "address3": "", "city": "Brooklyn", "zip_code": "11212", "country": "US", "state": "NY", "display_address": ["1567 Pitkin Ave", "Brooklyn, NY 11212"]}, "phone": "+17183429070", "display_phone": "(718) 342-9070", "distance": 3568.5590153374596}, {"id": "VgXNaUKNFW2ibLU9LkuGjg", "alias": "lindenwood-diner-and-restaurant-brooklyn", "name": "Lindenwood Diner & Restaurant", "image_url": "https://s3-media2.fl.yelpcdn.com/bphoto/M1EBu2DklHyahXIvaUWhtQ/o.jpg", "is_closed": false, "url": "https://www.yelp.com/biz/lindenwood-diner-and-restaurant-brooklyn?adjust_creative=azSZ1YV457_fpKmHVQM9Bg&utm_campaign=yelp_api_v3&utm_medium=api_v3_business_search&utm_source=azSZ1YV457_fpKmHVQM9Bg", "review_count": 376, "categories": [{"alias": "diners", "title": "Diners"}, {"alias": "newamerican", "title": "American (New)"}], "rating": 4.0, "coordinates": {"latitude": 40.66989, "longitude": -73.85758}, "transactions": ["pickup"], "price": "$$", "location": {"address1": "2870 Linden Blvd", "address2": "", "address3": "", "city": "Brooklyn", "zip_code": "11208", "country": "US", "state": "NY", "display_address": ["2870 Linden Blvd", "Brooklyn, NY 11208"]}, "phone": "+17182356343", "display_phone": "(718) 235-6343", "distance": 4864.815002670491}, {"id": "SyWBNlwqpgb4GLdpTEoQAw", "alias": "more-than-fries-brooklyn", "name": "More Than Fries", "image_url": "https://s3-media2.fl.yelpcdn.com/bphoto/RulwlUNFP7IclDjh3qLJ3Q/o.jpg", "is_closed": false, "url": "https://www.yelp.com/biz/more-than-fries-brooklyn?adjust_creative=azSZ1YV457_fpKmHVQM9Bg&utm_campaign=yelp_api_v3&utm_medium=api_v3_business_search&utm_source=azSZ1YV457_fpKmHVQM9Bg", "review_count": 1, "categories": [{"alias": "hotdogs", "title": "Fast Food"}, {"alias": "burgers", "title": "Burgers"}, {"alias": "seafood", "title": "Seafood"}], "rating": 5.0, "coordinates": {"latitude": 40.6642, "longitude": -73.92428}, "transactions": ["pickup", "delivery"], "location": {"address1": "1077a Rutland Rd", "address2": "", "address3": "", "city": "Brooklyn", "zip_code": "11212", "country": "US", "state": "NY", "display_address": ["1077a Rutland Rd", "Brooklyn, NY 11212"]}, "phone": "+13472406806", "display_phone": "(347) 240-6806", "distance": 3458.581190903195}, {"id": "gm8BRPLIRTzapBuBUWNPfA", "alias": "island-burger-brooklyn-4", "name": "Island Burger", "image_url": "https://s3-media4.fl.yelpcdn.com/bphoto/MQnA2iz00k04YbjbMGw6Lg/o.jpg", "is_closed": false, "url": "https://www.yelp.com/biz/island-burger-brooklyn-4?adjust_creative=azSZ1YV457_fpKmHVQM9Bg&utm_campaign=yelp_api_v3&utm_medium=api_v3_business_search&utm_source=azSZ1YV457_fpKmHVQM9Bg", "review_count": 194, "categories": [{"alias": "burgers", "title": "Burgers"}, {"alias": "salad", "title": "Salad"}, {"alias": "bbq", "title": "Barbeque"}], "rating": 3.5, "coordinates": {"latitude": 40.634518758278936, "longitude": -73.9476236}, "transactions": ["pickup", "delivery"], "price": "$", "location": {"address1": "2093 Nostrand Ave", "address2": "", "address3": "", "city": "Brooklyn", "zip_code": "11210", "country": "US", "state": "NY", "display_address": ["2093 Nostrand Ave", "Brooklyn, NY 11210"]}, "phone": "+13477899955", "display_phone": "(347) 789-9955", "distance": 4125.713778412666}, {"id": "L62iZeOF6P6qN6qGLvxAsQ", "alias": "wang-shack-brooklyn", "name": "Wang Shack", "image_url": "", "is_closed": false, "url": "https://www.yelp.com/biz/wang-shack-brooklyn?adjust_creative=azSZ1YV457_fpKmHVQM9Bg&utm_campaign=yelp_api_v3&utm_medium=api_v3_business_search&utm_source=azSZ1YV457_fpKmHVQM9Bg", "review_count": 1, "categories": [{"alias": "waffles", "title": "Waffles"}, {"alias": "burgers", "title": "Burgers"}, {"alias": "chicken_wings", "title": "Chicken Wings"}], "rating": 5.0, "coordinates": {"latitude": 40.67324229653363, "longitude": -73.9500569592029}, "transactions": ["pickup", "delivery"], "location": {"address1": "701 Nostrand Ave", "address2": "", "address3": null, "city": "Brooklyn", "zip_code": "11216", "country": "US", "state": "NY", "display_address": ["701 Nostrand Ave", "Brooklyn, NY 11216"]}, "phone": "+13472211795", "display_phone": "(347) 221-1795", "distance": 5691.28830812831}, {"id": "Wckmo8BSOvTQa2CdbW0tGw", "alias": "burger-urway-brooklyn-4", "name": "Burger Urway", "image_url": "https://s3-media3.fl.yelpcdn.com/bphoto/pUEGJIC6nw7KVaE6pRB2zg/o.jpg", "is_closed": false, "url": "https://www.yelp.com/biz/burger-urway-brooklyn-4?adjust_creative=azSZ1YV457_fpKmHVQM9Bg&utm_campaign=yelp_api_v3&utm_medium=api_v3_business_search&utm_source=azSZ1YV457_fpKmHVQM9Bg", "review_count": 52, "categories": [{"alias": "burgers", "title": "Burgers"}, {"alias": "tradamerican", "title": "American (Traditional)"}, {"alias": "hotdogs", "title": "Fast Food"}], "rating": 2.0, "coordinates": {"latitude": 40.6558, "longitude": -73.94201}, "transactions": ["pickup", "delivery"], "price": "$", "location": {"address1": "528 Clarkson Ave", "address2": "", "address3": "", "city": "Brooklyn", "zip_code": "11203", "country": "US", "state": "NY", "display_address": ["528 Clarkson Ave", "Brooklyn, NY 11203"]}, "phone": "+13476636005", "display_phone": "(347) 663-6005", "distance": 4045.31809975759}, {"id": "SZw7PCeIkt575oLU8yNpuQ", "alias": "brooklyn-chckn-n-lbstr-new-york", "name": "Brooklyn Chckn N Lbstr", "image_url": "https://s3-media4.fl.yelpcdn.com/bphoto/zZpJPonkI1hO3cZfojI3fw/o.jpg", "is_closed": false, "url": "https://www.yelp.com/biz/brooklyn-chckn-n-lbstr-new-york?adjust_creative=azSZ1YV457_fpKmHVQM9Bg&utm_campaign=yelp_api_v3&utm_medium=api_v3_business_search&utm_source=azSZ1YV457_fpKmHVQM9Bg", "review_count": 3, "categories": [{"alias": "fishnchips", "title": "Fish & Chips"}, {"alias": "seafood", "title": "Seafood"}, {"alias": "soulfood", "title": "Soul Food"}], "rating": 3.5, "coordinates": {"latitude": 40.66818, "longitude": -73.90665}, "transactions": ["pickup", "delivery"], "location": {"address1": "446 Mother Gaston Blvd", "address2": null, "address3": "", "city": "New York", "zip_code": "11212", "country": "US", "state": "NY", "display_address": ["446 Mother Gaston Blvd", "New York, NY 11212"]}, "phone": "+13473508738", "display_phone": "(347) 350-8738", "distance": 3232.9241581349215}, {"id": "xh6w5exbzfUWrZXGz09OUg", "alias": "mashallah-grill-and-restaurant-brooklyn", "name": "MashAllah Grill & Restaurant", "image_url": "https://s3-media3.fl.yelpcdn.com/bphoto/PRvEX8_W92jOJkKDSSAHzA/o.jpg", "is_closed": false, "url": "https://www.yelp.com/biz/mashallah-grill-and-restaurant-brooklyn?adjust_creative=azSZ1YV457_fpKmHVQM9Bg&utm_campaign=yelp_api_v3&utm_medium=api_v3_business_search&utm_source=azSZ1YV457_fpKmHVQM9Bg", "review_count": 2, "categories": [{"alias": "chickenshop", "title": "Chicken Shop"}, {"alias": "halal", "title": "Halal"}, {"alias": "burgers", "title": "Burgers"}], "rating": 5.0, "coordinates": {"latitude": 40.612306, "longitude": -73.925784}, "transactions": ["delivery"], "location": {"address1": "2368 Flatbush Ave", "address2": "", "address3": "", "city": "Brooklyn", "zip_code": "11234", "country": "US", "state": "NY", "display_address": ["2368 Flatbush Ave", "Brooklyn, NY 11234"]}, "phone": "+19173108460", "display_phone": "(917) 310-8460", "distance": 3778.566631186043}, {"id": "aqmBcayYzm_J58P_CNQH6w", "alias": "bklyn-eats-brooklyn", "name": "BKLYN eats", "image_url": "https://s3-media3.fl.yelpcdn.com/bphoto/ZY_Nk8eVRmo9WA_QRkrefw/o.jpg", "is_closed": false, "url": "https://www.yelp.com/biz/bklyn-eats-brooklyn?adjust_creative=azSZ1YV457_fpKmHVQM9Bg&utm_campaign=yelp_api_v3&utm_medium=api_v3_business_search&utm_source=azSZ1YV457_fpKmHVQM9Bg", "review_count": 45, "categories": [{"alias": "breakfast_brunch", "title": "Breakfast & Brunch"}, {"alias": "burgers", "title": "Burgers"}, {"alias": "tradamerican", "title": "American (Traditional)"}], "rating": 3.5, "coordinates": {"latitude": 40.67547, "longitude": -73.89855}, "transactions": ["pickup", "delivery"], "price": "$", "location": {"address1": "2592 Atlantic Ave", "address2": "", "address3": "", "city": "Brooklyn", "zip_code": "11207", "country": "US", "state": "NY", "display_address": ["2592 Atlantic Ave", "Brooklyn, NY 11207"]}, "phone": "+13476631519", "display_phone": "(347) 663-1519", "distance": 3980.3401229406336}, {"id": "MgGY2TEfFCyzxmMzcqAO6w", "alias": "the-juicy-box-brooklyn", "name": "The Juicy Box", "image_url": "https://s3-media2.fl.yelpcdn.com/bphoto/8l-lijt7ZPLhDI7mLKMf_A/o.jpg", "is_closed": false, "url": "https://www.yelp.com/biz/the-juicy-box-brooklyn?adjust_creative=azSZ1YV457_fpKmHVQM9Bg&utm_campaign=yelp_api_v3&utm_medium=api_v3_business_search&utm_source=azSZ1YV457_fpKmHVQM9Bg", "review_count": 93, "categories": [{"alias": "bars", "title": "Bars"}, {"alias": "juicebars", "title": "Juice Bars & Smoothies"}, {"alias": "burgers", "title": "Burgers"}], "rating": 3.5, "coordinates": {"latitude": 40.629069, "longitude": -73.947001}, "transactions": ["pickup", "delivery"], "price": "$$", "location": {"address1": "2281 Nostrand Ave", "address2": null, "address3": null, "city": "Brooklyn", "zip_code": "11210", "country": "US", "state": "NY", "display_address": ["2281 Nostrand Ave", "Brooklyn, NY 11210"]}, "phone": "+19179334088", "display_phone": "(917) 933-4088", "distance": 4202.280140215018}, {"id": "eob2iJPiR7-r2w4he0Tuig", "alias": "mill-basin-kosher-deli-brooklyn-3", "name": "Mill Basin Kosher Deli", "image_url": "https://s3-media2.fl.yelpcdn.com/bphoto/OPO0ZzF1O4Ci7l3H_-ZSAQ/o.jpg", "is_closed": false, "url": "https://www.yelp.com/biz/mill-basin-kosher-deli-brooklyn-3?adjust_creative=azSZ1YV457_fpKmHVQM9Bg&utm_campaign=yelp_api_v3&utm_medium=api_v3_business_search&utm_source=azSZ1YV457_fpKmHVQM9Bg", "review_count": 237, "categories": [{"alias": "delis", "title": "Delis"}, {"alias": "kosher", "title": "Kosher"}], "rating": 3.5, "coordinates": {"latitude": 40.61567, "longitude": -73.91812}, "transactions": ["pickup", "delivery"], "price": "$$", "location": {"address1": "5823 Ave T", "address2": "", "address3": "", "city": "Brooklyn", "zip_code": "11234", "country": "US", "state": "NY", "display_address": ["5823 Ave T", "Brooklyn, NY 11234"]}, "phone": "+17182414910", "display_phone": "(718) 241-4910", "distance": 3100.3081662356467}, {"id": "8_BYOUot2vTJHv1nBfMZlA", "alias": "boeuf-and-bun-crown-heights", "name": "Boeuf & Bun", "image_url": "https://s3-media1.fl.yelpcdn.com/bphoto/_p8a7QKf_xNyBpBSXUJPug/o.jpg", "is_closed": false, "url": "https://www.yelp.com/biz/boeuf-and-bun-crown-heights?adjust_creative=azSZ1YV457_fpKmHVQM9Bg&utm_campaign=yelp_api_v3&utm_medium=api_v3_business_search&utm_source=azSZ1YV457_fpKmHVQM9Bg", "review_count": 119, "categories": [{"alias": "burgers", "title": "Burgers"}], "rating": 3.5, "coordinates": {"latitude": 40.670482, "longitude": -73.941833}, "transactions": ["delivery"], "price": "$$", "location": {"address1": "271 Kingston Ave", "address2": "", "address3": "", "city": "Crown Heights", "zip_code": "11213", "country": "US", "state": "NY", "display_address": ["271 Kingston Ave", "Crown Heights, NY 11213"]}, "phone": "+17182218900", "display_phone": "(718) 221-8900", "distance": 4979.075353832875}, {"id": "ThHjjCmRhQQT6-dhgmJaLQ", "alias": "five-guys-brooklyn-14", "name": "Five Guys", "image_url": "https://s3-media4.fl.yelpcdn.com/bphoto/QUO8-u-OmD1LK4t8DdU93A/o.jpg", "is_closed": false, "url": "https://www.yelp.com/biz/five-guys-brooklyn-14?adjust_creative=azSZ1YV457_fpKmHVQM9Bg&utm_campaign=yelp_api_v3&utm_medium=api_v3_business_search&utm_source=azSZ1YV457_fpKmHVQM9Bg", "review_count": 34, "categories": [{"alias": "burgers", "title": "Burgers"}, {"alias": "hotdogs", "title": "Fast Food"}], "rating": 2.5, "coordinates": {"latitude": 40.62650091307452, "longitude": -73.91622400780095}, "transactions": ["delivery"], "price": "$$", "location": {"address1": "2159 Ralph Ave", "address2": null, "address3": null, "city": "Brooklyn", "zip_code": "12234", "country": "US", "state": "NY", "display_address": ["2159 Ralph Ave", "Brooklyn, NY 12234"]}, "phone": "+13476730368", "display_phone": "(347) 673-0368", "distance": 2047.4737115374944}, {"id": "2Souder8nK1UM_Z86tlklQ", "alias": "atlantis-diner-brooklyn", "name": "Atlantis Diner", "image_url": "https://s3-media2.fl.yelpcdn.com/bphoto/nW141ihD0kyCDDqsURCNJA/o.jpg", "is_closed": false, "url": "https://www.yelp.com/biz/atlantis-diner-brooklyn?adjust_creative=azSZ1YV457_fpKmHVQM9Bg&utm_campaign=yelp_api_v3&utm_medium=api_v3_business_search&utm_source=azSZ1YV457_fpKmHVQM9Bg", "review_count": 30, "categories": [{"alias": "newamerican", "title": "American (New)"}, {"alias": "diners", "title": "Diners"}, {"alias": "breakfast_brunch", "title": "Breakfast & Brunch"}], "rating": 4.0, "coordinates": {"latitude": 40.6431786, "longitude": -73.9141128}, "transactions": ["pickup", "delivery"], "price": "$$", "location": {"address1": "8600 Foster Ave", "address2": "", "address3": "", "city": "Brooklyn", "zip_code": "11236", "country": "US", "state": "NY", "display_address": ["8600 Foster Ave", "Brooklyn, NY 11236"]}, "phone": "+17189687100", "display_phone": "(718) 968-7100", "distance": 1311.0195158872132}, {"id": "Wv7fXFAqhzRZ9eozFVo4yQ", "alias": "mr-grillooo-brooklyn-2", "name": "Mr Grillooo", "image_url": "https://s3-media3.fl.yelpcdn.com/bphoto/AwA3whvHocbmLpcc99L7-Q/o.jpg", "is_closed": false, "url": "https://www.yelp.com/biz/mr-grillooo-brooklyn-2?adjust_creative=azSZ1YV457_fpKmHVQM9Bg&utm_campaign=yelp_api_v3&utm_medium=api_v3_business_search&utm_source=azSZ1YV457_fpKmHVQM9Bg", "review_count": 3, "categories": [{"alias": "mediterranean", "title": "Mediterranean"}], "rating": 3.5, "coordinates": {"latitude": 40.6458117964899, "longitude": -73.9029653902864}, "transactions": ["pickup"], "location": {"address1": "1401 Rockway Pkwy", "address2": null, "address3": null, "city": "Brooklyn", "zip_code": "11236", "country": "US", "state": "NY", "display_address": ["1401 Rockway Pkwy", "Brooklyn, NY 11236"]}, "phone": "+13477025248", "display_phone": "(347) 702-5248", "distance": 753.1818238286621}, {"id": "wP6yFT_H_gevLQq3tOYy3Q", "alias": "island-burger-brooklyn-2", "name": "Island Burger", "image_url": "https://s3-media2.fl.yelpcdn.com/bphoto/ok53gOPUy0inUUzQjSlPKw/o.jpg", "is_closed": false, "url": "https://www.yelp.com/biz/island-burger-brooklyn-2?adjust_creative=azSZ1YV457_fpKmHVQM9Bg&utm_campaign=yelp_api_v3&utm_medium=api_v3_business_search&utm_source=azSZ1YV457_fpKmHVQM9Bg", "review_count": 208, "categories": [{"alias": "burgers", "title": "Burgers"}], "rating": 3.5, "coordinates": {"latitude": 40.6617093, "longitude": -73.93172099359873}, "transactions": ["pickup", "delivery"], "price": "$$", "location": {"address1": "504 Utica Ave", "address2": "", "address3": "", "city": "Brooklyn", "zip_code": "11203", "country": "US", "state": "NY", "display_address": ["504 Utica Ave", "Brooklyn, NY 11203"]}, "phone": "+17184952474", "display_phone": "(718) 495-2474", "distance": 3683.176927756969}, {"id": "FSINA8FdIQP8b__H4eZGTQ", "alias": "moon-deli-brooklyn", "name": "Moon Deli", "image_url": "https://s3-media4.fl.yelpcdn.com/bphoto/UxTbL8z5GmllIl3Yjox1bw/o.jpg", "is_closed": false, "url": "https://www.yelp.com/biz/moon-deli-brooklyn?adjust_creative=azSZ1YV457_fpKmHVQM9Bg&utm_campaign=yelp_api_v3&utm_medium=api_v3_business_search&utm_source=azSZ1YV457_fpKmHVQM9Bg", "review_count": 1, "categories": [{"alias": "delis", "title": "Delis"}, {"alias": "sandwiches", "title": "Sandwiches"}], "rating": 5.0, "coordinates": {"latitude": 40.6764, "longitude": -73.90851}, "transactions": ["pickup", "delivery"], "location": {"address1": "2129 Atlantic Ave", "address2": null, "address3": null, "city": "Brooklyn", "zip_code": "11233", "country": "US", "state": "NY", "display_address": ["2129 Atlantic Ave", "Brooklyn, NY 11233"]}, "phone": "+13473183613", "display_phone": "(347) 318-3613", "distance": 4164.681028259842}, {"id": "x1zhtJxsdSe7sCvCrg_7oQ", "alias": "texas-chicken-and-burgers-brooklyn-7", "name": "Texas Chicken & Burgers", "image_url": "https://s3-media1.fl.yelpcdn.com/bphoto/LFCGwvpdKl4mKDxTgLYIVw/o.jpg", "is_closed": false, "url": "https://www.yelp.com/biz/texas-chicken-and-burgers-brooklyn-7?adjust_creative=azSZ1YV457_fpKmHVQM9Bg&utm_campaign=yelp_api_v3&utm_medium=api_v3_business_search&utm_source=azSZ1YV457_fpKmHVQM9Bg", "review_count": 2, "categories": [{"alias": "hotdogs", "title": "Fast Food"}, {"alias": "burgers", "title": "Burgers"}, {"alias": "chicken_wings", "title": "Chicken Wings"}], "rating": 5.0, "coordinates": {"latitude": 40.655647, "longitude": -73.942821}, "transactions": ["pickup", "delivery"], "location": {"address1": "500 Clarkson Ave", "address2": "", "address3": null, "city": "Brooklyn", "zip_code": "11203", "country": "US", "state": "NY", "display_address": ["500 Clarkson Ave", "Brooklyn, NY 11203"]}, "phone": "", "display_phone": "", "distance": 4092.3635636699587}, {"id": "FLoC0Iyhht5g7ZYUiX-PcQ", "alias": "dagan-grille-brooklyn", "name": "Dagan Grille", "image_url": "https://s3-media2.fl.yelpcdn.com/bphoto/8phy_hgKsw16_KgUgQNnEA/o.jpg", "is_closed": false, "url": "https://www.yelp.com/biz/dagan-grille-brooklyn?adjust_creative=azSZ1YV457_fpKmHVQM9Bg&utm_campaign=yelp_api_v3&utm_medium=api_v3_business_search&utm_source=azSZ1YV457_fpKmHVQM9Bg", "review_count": 8, "categories": [{"alias": "burgers", "title": "Burgers"}, {"alias": "kosher", "title": "Kosher"}], "rating": 4.5, "coordinates": {"latitude": 40.6134624034166, "longitude": -73.9121130108833}, "transactions": ["delivery"], "location": {"address1": "6185 Strickland Ave", "address2": "", "address3": null, "city": "Brooklyn", "zip_code": "11234", "country": "US", "state": "NY", "display_address": ["6185 Strickland Ave", "Brooklyn, NY 11234"]}, "phone": "+17184444100", "display_phone": "(718) 444-4100", "distance": 3105.816419370354}, {"id": "cjX4yj8BoiAuF-F4R6K3xw", "alias": "maxs-deli-brooklyn", "name": "Max's Deli", "image_url": "https://s3-media1.fl.yelpcdn.com/bphoto/d5nN_pszegmMTpJ9WAyQnQ/o.jpg", "is_closed": false, "url": "https://www.yelp.com/biz/maxs-deli-brooklyn?adjust_creative=azSZ1YV457_fpKmHVQM9Bg&utm_campaign=yelp_api_v3&utm_medium=api_v3_business_search&utm_source=azSZ1YV457_fpKmHVQM9Bg", "review_count": 11, "categories": [{"alias": "delis", "title": "Delis"}], "rating": 3.0, "coordinates": {"latitude": 40.675968170166, "longitude": -73.8976287841797}, "transactions": ["pickup", "delivery"], "price": "$$", "location": {"address1": "2623 Atlantic Ave", "address2": "", "address3": "", "city": "Brooklyn", "zip_code": "11207", "country": "US", "state": "NY", "display_address": ["2623 Atlantic Ave", "Brooklyn, NY 11207"]}, "phone": "+13473183151", "display_phone": "(347) 318-3151", "distance": 4041.2123464626015}, {"id": "X90sgtmcR-FdUndlbA3EyQ", "alias": "santo-domingo-restaurant-brooklyn-2", "name": "Santo Domingo Restaurant", "image_url": "https://s3-media1.fl.yelpcdn.com/bphoto/mw-lXtNYgiLYc_hFsWx_7Q/o.jpg", "is_closed": false, "url": "https://www.yelp.com/biz/santo-domingo-restaurant-brooklyn-2?adjust_creative=azSZ1YV457_fpKmHVQM9Bg&utm_campaign=yelp_api_v3&utm_medium=api_v3_business_search&utm_source=azSZ1YV457_fpKmHVQM9Bg", "review_count": 51, "categories": [{"alias": "dominican", "title": "Dominican"}, {"alias": "puertorican", "title": "Puerto Rican"}, {"alias": "latin", "title": "Latin American"}], "rating": 4.0, "coordinates": {"latitude": 40.66775, "longitude": -73.87888}, "transactions": ["pickup", "delivery"], "price": "$", "location": {"address1": "862 New Lots Ave", "address2": null, "address3": "", "city": "Brooklyn", "zip_code": "11208", "country": "US", "state": "NY", "display_address": ["862 New Lots Ave", "Brooklyn, NY 11208"]}, "phone": "+17184848373", "display_phone": "(718) 484-8373", "distance": 3567.7273582166363}, {"id": "D8xhEZi606e4joYWe9nmRw", "alias": "burger-king-brooklyn-32", "name": "Burger King", "image_url": "https://s3-media3.fl.yelpcdn.com/bphoto/qo01in2G3BNyWgG22QWNtQ/o.jpg", "is_closed": false, "url": "https://www.yelp.com/biz/burger-king-brooklyn-32?adjust_creative=azSZ1YV457_fpKmHVQM9Bg&utm_campaign=yelp_api_v3&utm_medium=api_v3_business_search&utm_source=azSZ1YV457_fpKmHVQM9Bg", "review_count": 16, "categories": [{"alias": "hotdogs", "title": "Fast Food"}, {"alias": "burgers", "title": "Burgers"}], "rating": 1.5, "coordinates": {"latitude": 40.6378397, "longitude": -73.8950732}, "transactions": ["delivery"], "price": "$", "location": {"address1": "1772 Rockaway Pkwy", "address2": "", "address3": null, "city": "Brooklyn", "zip_code": "11236", "country": "US", "state": "NY", "display_address": ["1772 Rockaway Pkwy", "Brooklyn, NY 11236"]}, "phone": "+17185312839", "display_phone": "(718) 531-2839", "distance": 399.79013915840216}, {"id": "fQA5FWHh5VtaC_EWfe24rg", "alias": "skorch-resturant-and-lounge-brooklyn", "name": "Skorch Resturant and Lounge", "image_url": "https://s3-media1.fl.yelpcdn.com/bphoto/1U1hcllZpFaCEl9cz9Iysw/o.jpg", "is_closed": false, "url": "https://www.yelp.com/biz/skorch-resturant-and-lounge-brooklyn?adjust_creative=azSZ1YV457_fpKmHVQM9Bg&utm_campaign=yelp_api_v3&utm_medium=api_v3_business_search&utm_source=azSZ1YV457_fpKmHVQM9Bg", "review_count": 1, "categories": [{"alias": "seafood", "title": "Seafood"}, {"alias": "burgers", "title": "Burgers"}, {"alias": "chicken_wings", "title": "Chicken Wings"}], "rating": 5.0, "coordinates": {"latitude": 40.6719057407923, "longitude": -73.9335378765895}, "transactions": ["pickup", "delivery"], "location": {"address1": "205 Schenectady Ave", "address2": null, "address3": "", "city": "Brooklyn", "zip_code": "11213", "country": "US", "state": "NY", "display_address": ["205 Schenectady Ave", "Brooklyn, NY 11213"]}, "phone": "+17184848977", "display_phone": "(718) 484-8977", "distance": 4617.05657174314}, {"id": "BeNwDJTYZiRqmm-3UF_E4g", "alias": "checkers-brooklyn-20", "name": "Checkers", "image_url": "https://s3-media3.fl.yelpcdn.com/bphoto/rze5KQNboRNNp0kbs8XZcQ/o.jpg", "is_closed": false, "url": "https://www.yelp.com/biz/checkers-brooklyn-20?adjust_creative=azSZ1YV457_fpKmHVQM9Bg&utm_campaign=yelp_api_v3&utm_medium=api_v3_business_search&utm_source=azSZ1YV457_fpKmHVQM9Bg", "review_count": 3, "categories": [{"alias": "burgers", "title": "Burgers"}, {"alias": "hotdogs", "title": "Fast Food"}], "rating": 2.5, "coordinates": {"latitude": 40.66474, "longitude": -73.92344}, "transactions": [], "location": {"address1": "1101 Rutland Rd.", "address2": "", "address3": "", "city": "Brooklyn", "zip_code": "11212", "country": "US", "state": "NY", "display_address": ["1101 Rutland Rd.", "Brooklyn, NY 11212"]}, "phone": "+13472952451", "display_phone": "(347) 295-2451", "distance": 3472.2758061264394}, {"id": "9c53VXhEabyj67kqJO5SOA", "alias": "crown-fried-chicken-brooklyn-76", "name": "Crown Fried Chicken", "image_url": "https://s3-media2.fl.yelpcdn.com/bphoto/yAIIJDgr5ncEhH2kxJjVSQ/o.jpg", "is_closed": false, "url": "https://www.yelp.com/biz/crown-fried-chicken-brooklyn-76?adjust_creative=azSZ1YV457_fpKmHVQM9Bg&utm_campaign=yelp_api_v3&utm_medium=api_v3_business_search&utm_source=azSZ1YV457_fpKmHVQM9Bg", "review_count": 4, "categories": [{"alias": "chicken_wings", "title": "Chicken Wings"}, {"alias": "burgers", "title": "Burgers"}, {"alias": "hotdogs", "title": "Fast Food"}], "rating": 2.5, "coordinates": {"latitude": 40.65527, "longitude": -73.8876499}, "transactions": ["pickup", "delivery"], "price": "$$", "location": {"address1": "941 Pennsylvania Ave", "address2": "", "address3": "", "city": "Brooklyn", "zip_code": "11207", "country": "US", "state": "NY", "display_address": ["941 Pennsylvania Ave", "Brooklyn, NY 11207"]}, "phone": "+17184848869", "display_phone": "(718) 484-8869", "distance": 1988.233466576827}, {"id": "NHUlLLKTRmztq1Zl4GJbcw", "alias": "mcdonalds-brooklyn-83", "name": "McDonald's", "image_url": "https://s3-media2.fl.yelpcdn.com/bphoto/0HjEeNDd7OwvYSaiEnyuVQ/o.jpg", "is_closed": false, "url": "https://www.yelp.com/biz/mcdonalds-brooklyn-83?adjust_creative=azSZ1YV457_fpKmHVQM9Bg&utm_campaign=yelp_api_v3&utm_medium=api_v3_business_search&utm_source=azSZ1YV457_fpKmHVQM9Bg", "review_count": 25, "categories": [{"alias": "hotdogs", "title": "Fast Food"}, {"alias": "burgers", "title": "Burgers"}, {"alias": "coffee", "title": "Coffee & Tea"}], "rating": 2.5, "coordinates": {"latitude": 40.644563, "longitude": -73.901258}, "transactions": ["delivery"], "price": "$", "location": {"address1": "1467 Rockaway Pkwy", "address2": "", "address3": "", "city": "Brooklyn", "zip_code": "11236", "country": "US", "state": "NY", "display_address": ["1467 Rockaway Pkwy", "Brooklyn, NY 11236"]}, "phone": "+17182577400", "display_phone": "(718) 257-7400", "distance": 577.041564258022}, {"id": "BgxxNeqZICVh-AoseksuAQ", "alias": "smashburger-brooklyn-5", "name": "Smashburger", "image_url": "https://s3-media1.fl.yelpcdn.com/bphoto/qZNw_9m7OlY_oQl2LYGK4w/o.jpg", "is_closed": false, "url": "https://www.yelp.com/biz/smashburger-brooklyn-5?adjust_creative=azSZ1YV457_fpKmHVQM9Bg&utm_campaign=yelp_api_v3&utm_medium=api_v3_business_search&utm_source=azSZ1YV457_fpKmHVQM9Bg", "review_count": 26, "categories": [{"alias": "burgers", "title": "Burgers"}], "rating": 3.0, "coordinates": {"latitude": 40.636335270834, "longitude": -73.9269844}, "transactions": ["pickup", "delivery"], "location": {"address1": "5210 Kings Hwy", "address2": "", "address3": null, "city": "Brooklyn", "zip_code": "11234", "country": "US", "state": "NY", "display_address": ["5210 Kings Hwy", "Brooklyn, NY 11234"]}, "phone": "+17182606215", "display_phone": "(718) 260-6215", "distance": 2373.2292621084625}, {"id": "QuXLQmJnNK51bDQex2t6Dw", "alias": "bkln-diner-formerly-vikkis-brooklyn-4", "name": "BKLN Diner - formerly Vikki's", "image_url": "https://s3-media2.fl.yelpcdn.com/bphoto/n8ni_PiFPhQU8fhO7axeHw/o.jpg", "is_closed": false, "url": "https://www.yelp.com/biz/bkln-diner-formerly-vikkis-brooklyn-4?adjust_creative=azSZ1YV457_fpKmHVQM9Bg&utm_campaign=yelp_api_v3&utm_medium=api_v3_business_search&utm_source=azSZ1YV457_fpKmHVQM9Bg", "review_count": 116, "categories": [{"alias": "breakfast_brunch", "title": "Breakfast & Brunch"}, {"alias": "sandwiches", "title": "Sandwiches"}, {"alias": "diners", "title": "Diners"}], "rating": 3.0, "coordinates": {"latitude": 40.61942, "longitude": -73.9175099}, "transactions": ["pickup", "delivery"], "price": "$$", "location": {"address1": "5924 Ave N", "address2": "", "address3": "", "city": "Brooklyn", "zip_code": "11234", "country": "US", "state": "NY", "display_address": ["5924 Ave N", "Brooklyn, NY 11234"]}, "phone": "+17182092246", "display_phone": "(718) 209-2246", "distance": 2740.0847541048333}, {"id": "GOsYDBB56WweGLp-9g054A", "alias": "bella-s-fusion-new-york", "name": "Bella\u2019s Fusion", "image_url": "https://s3-media1.fl.yelpcdn.com/bphoto/8bwGcfOfuHORRiYvdlQsWA/o.jpg", "is_closed": false, "url": "https://www.yelp.com/biz/bella-s-fusion-new-york?adjust_creative=azSZ1YV457_fpKmHVQM9Bg&utm_campaign=yelp_api_v3&utm_medium=api_v3_business_search&utm_source=azSZ1YV457_fpKmHVQM9Bg", "review_count": 20, "categories": [{"alias": "mexican", "title": "Mexican"}, {"alias": "caribbean", "title": "Caribbean"}], "rating": 4.0, "coordinates": {"latitude": 40.644702739489965, "longitude": -73.92251248650545}, "transactions": ["pickup", "delivery"], "location": {"address1": "5706 Clarendon Rd", "address2": null, "address3": "", "city": "New York", "zip_code": "11203", "country": "US", "state": "NY", "display_address": ["5706 Clarendon Rd", "New York, NY 11203"]}, "phone": "+17183048123", "display_phone": "(718) 304-8123", "distance": 2047.2610587694032}, {"id": "GSdB1fZWEZ-FkZ5szQyqGA", "alias": "burger-king-brooklyn-46", "name": "Burger King", "image_url": "https://s3-media1.fl.yelpcdn.com/bphoto/dSxV8Iagt0wCzdDCYpiDdA/o.jpg", "is_closed": false, "url": "https://www.yelp.com/biz/burger-king-brooklyn-46?adjust_creative=azSZ1YV457_fpKmHVQM9Bg&utm_campaign=yelp_api_v3&utm_medium=api_v3_business_search&utm_source=azSZ1YV457_fpKmHVQM9Bg", "review_count": 5, "categories": [{"alias": "burgers", "title": "Burgers"}, {"alias": "hotdogs", "title": "Fast Food"}], "rating": 2.0, "coordinates": {"latitude": 40.615772, "longitude": -73.913792}, "transactions": ["pickup", "delivery"], "location": {"address1": "6201 Ave U", "address2": null, "address3": null, "city": "Brooklyn", "zip_code": "11234", "country": "US", "state": "NY", "display_address": ["6201 Ave U", "Brooklyn, NY 11234"]}, "phone": "+17182413134", "display_phone": "(718) 241-3134", "distance": 2921.7077480432836}, {"id": "8LU00h3yn1EhaMm1TT0mgg", "alias": "el-sabor-de-la-esquina-brooklyn", "name": "El Sabor de la Esquina", "image_url": "https://s3-media2.fl.yelpcdn.com/bphoto/h2hzkLusfIgY7nc06cCIMQ/o.jpg", "is_closed": false, "url": "https://www.yelp.com/biz/el-sabor-de-la-esquina-brooklyn?adjust_creative=azSZ1YV457_fpKmHVQM9Bg&utm_campaign=yelp_api_v3&utm_medium=api_v3_business_search&utm_source=azSZ1YV457_fpKmHVQM9Bg", "review_count": 1, "categories": [{"alias": "latin", "title": "Latin American"}, {"alias": "breakfast_brunch", "title": "Breakfast & Brunch"}, {"alias": "seafood", "title": "Seafood"}], "rating": 5.0, "coordinates": {"latitude": 40.67429, "longitude": -73.87879}, "transactions": ["pickup", "delivery"], "location": {"address1": "2530 Pitkin Ave", "address2": null, "address3": "", "city": "Brooklyn", "zip_code": "11208", "country": "US", "state": "NY", "display_address": ["2530 Pitkin Ave", "Brooklyn, NY 11208"]}, "phone": "+13472406967", "display_phone": "(347) 240-6967", "distance": 4214.898854763766}, {"id": "DbgNpmzjkU_l56a0uumw8Q", "alias": "applebees-grill-bar-brooklyn-4", "name": "Applebee's Grill + Bar", "image_url": "https://s3-media3.fl.yelpcdn.com/bphoto/p9E-HKUHys8luAYYWIEcRw/o.jpg", "is_closed": false, "url": "https://www.yelp.com/biz/applebees-grill-bar-brooklyn-4?adjust_creative=azSZ1YV457_fpKmHVQM9Bg&utm_campaign=yelp_api_v3&utm_medium=api_v3_business_search&utm_source=azSZ1YV457_fpKmHVQM9Bg", "review_count": 371, "categories": [{"alias": "tradamerican", "title": "American (Traditional)"}, {"alias": "sportsbars", "title": "Sports Bars"}, {"alias": "burgers", "title": "Burgers"}], "rating": 1.5, "coordinates": {"latitude": 40.6539397067806, "longitude": -73.8732072527008}, "transactions": ["pickup", "delivery"], "price": "$$", "location": {"address1": "448 Gateway Dr", "address2": "", "address3": "", "city": "Brooklyn", "zip_code": "11239", "country": "US", "state": "NY", "display_address": ["448 Gateway Dr", "Brooklyn, NY 11239"]}, "phone": "+17188272527", "display_phone": "(718) 827-2527", "distance": 2709.8383957966375}, {"id": "xxUcM-7-cyDYDS9JLgzz4A", "alias": "briu-crafty-brooklyn", "name": "Briu Crafty", "image_url": "https://s3-media3.fl.yelpcdn.com/bphoto/pF5kaz6b1VTxlZOUEAwvNQ/o.jpg", "is_closed": false, "url": "https://www.yelp.com/biz/briu-crafty-brooklyn?adjust_creative=azSZ1YV457_fpKmHVQM9Bg&utm_campaign=yelp_api_v3&utm_medium=api_v3_business_search&utm_source=azSZ1YV457_fpKmHVQM9Bg", "review_count": 2, "categories": [{"alias": "coffee", "title": "Coffee & Tea"}, {"alias": "cupcakes", "title": "Cupcakes"}, {"alias": "burgers", "title": "Burgers"}], "rating": 5.0, "coordinates": {"latitude": 40.67170333862305, "longitude": -73.9354019165039}, "transactions": [], "location": {"address1": null, "address2": null, "address3": "", "city": "Brooklyn", "zip_code": "11213", "country": "US", "state": "NY", "display_address": ["Brooklyn, NY 11213"]}, "phone": "+13479810181", "display_phone": "(347) 981-0181", "distance": 4936.587226801081}, {"id": "DHW-8r2prbHDRkhkB5WM8w", "alias": "mrbeast-burger-brooklyn-9", "name": "MrBeast Burger", "image_url": "https://s3-media4.fl.yelpcdn.com/bphoto/YROqvb2lghWWXKo4LQYuSQ/o.jpg", "is_closed": false, "url": "https://www.yelp.com/biz/mrbeast-burger-brooklyn-9?adjust_creative=azSZ1YV457_fpKmHVQM9Bg&utm_campaign=yelp_api_v3&utm_medium=api_v3_business_search&utm_source=azSZ1YV457_fpKmHVQM9Bg", "review_count": 2, "categories": [{"alias": "fooddeliveryservices", "title": "Food Delivery Services"}, {"alias": "burgers", "title": "Burgers"}], "rating": 1.0, "coordinates": {"latitude": 40.6338, "longitude": -73.94788}, "transactions": ["delivery"], "location": {"address1": "2114 Nostrand Avenue", "address2": null, "address3": null, "city": "Brooklyn", "zip_code": "11210", "country": "US", "state": "NY", "display_address": ["2114 Nostrand Avenue", "Brooklyn, NY 11210"]}, "phone": "", "display_phone": "", "distance": 4169.123431871311}, {"id": "VpUxV7lWSbNHyzuxqrjjtw", "alias": "mcdonalds-brooklyn-44", "name": "McDonald's", "image_url": "https://s3-media2.fl.yelpcdn.com/bphoto/m7smr_NURgKQ0ucED9r8kg/o.jpg", "is_closed": false, "url": "https://www.yelp.com/biz/mcdonalds-brooklyn-44?adjust_creative=azSZ1YV457_fpKmHVQM9Bg&utm_campaign=yelp_api_v3&utm_medium=api_v3_business_search&utm_source=azSZ1YV457_fpKmHVQM9Bg", "review_count": 12, "categories": [{"alias": "burgers", "title": "Burgers"}, {"alias": "hotdogs", "title": "Fast Food"}, {"alias": "coffee", "title": "Coffee & Tea"}], "rating": 1.0, "coordinates": {"latitude": 40.6526983482967, "longitude": -73.9231985807419}, "transactions": ["delivery"], "price": "$", "location": {"address1": "5707-13 Church Ave", "address2": "", "address3": "", "city": "Brooklyn", "zip_code": "11203", "country": "US", "state": "NY", "display_address": ["5707-13 Church Ave", "Brooklyn, NY 11203"]}, "phone": "+17189226085", "display_phone": "(718) 922-6085", "distance": 2493.626561170546}, {"id": "RgE6FMNHKFvLkcXQ6JR9cQ", "alias": "pronto-cafe-brooklyn", "name": "Pronto Cafe", "image_url": "https://s3-media3.fl.yelpcdn.com/bphoto/4Jh_l6wzvnBBfaQPrGTWbg/o.jpg", "is_closed": false, "url": "https://www.yelp.com/biz/pronto-cafe-brooklyn?adjust_creative=azSZ1YV457_fpKmHVQM9Bg&utm_campaign=yelp_api_v3&utm_medium=api_v3_business_search&utm_source=azSZ1YV457_fpKmHVQM9Bg", "review_count": 35, "categories": [{"alias": "mexican", "title": "Mexican"}, {"alias": "breakfast_brunch", "title": "Breakfast & Brunch"}, {"alias": "tradamerican", "title": "American (Traditional)"}], "rating": 4.5, "coordinates": {"latitude": 40.631888, "longitude": -73.946201}, "transactions": ["pickup", "delivery"], "location": {"address1": "3105 Avenue H", "address2": null, "address3": null, "city": "Brooklyn", "zip_code": "11210", "country": "US", "state": "NY", "display_address": ["3105 Avenue H", "Brooklyn, NY 11210"]}, "phone": "+13474139300", "display_phone": "(347) 413-9300", "distance": 4058.644783000467}, {"id": "Hm_el1BhfN8E5QPYQ0QsOg", "alias": "grandmas-kitchen-brooklyn", "name": "Grandma's Kitchen", "image_url": "https://s3-media2.fl.yelpcdn.com/bphoto/BvBniXAW5cIdcGGZB0u2pQ/o.jpg", "is_closed": false, "url": "https://www.yelp.com/biz/grandmas-kitchen-brooklyn?adjust_creative=azSZ1YV457_fpKmHVQM9Bg&utm_campaign=yelp_api_v3&utm_medium=api_v3_business_search&utm_source=azSZ1YV457_fpKmHVQM9Bg", "review_count": 11, "categories": [{"alias": "soulfood", "title": "Soul Food"}], "rating": 4.5, "coordinates": {"latitude": 40.6727, "longitude": -73.93875}, "transactions": ["pickup", "delivery"], "location": {"address1": "1172 Park Pl", "address2": null, "address3": "", "city": "Brooklyn", "zip_code": "11213", "country": "US", "state": "NY", "display_address": ["1172 Park Pl", "Brooklyn, NY 11213"]}, "phone": "", "display_phone": "", "distance": 4963.581626810285}, {"id": "tccEPkc0-Q5y7gFwHY6tIA", "alias": "wendys-brooklyn-2", "name": "Wendy's", "image_url": "https://s3-media3.fl.yelpcdn.com/bphoto/9a-K8abv57z5Pibe2Osgjw/o.jpg", "is_closed": false, "url": "https://www.yelp.com/biz/wendys-brooklyn-2?adjust_creative=azSZ1YV457_fpKmHVQM9Bg&utm_campaign=yelp_api_v3&utm_medium=api_v3_business_search&utm_source=azSZ1YV457_fpKmHVQM9Bg", "review_count": 31, "categories": [{"alias": "hotdogs", "title": "Fast Food"}, {"alias": "burgers", "title": "Burgers"}], "rating": 2.0, "coordinates": {"latitude": 40.66118066463239, "longitude": -73.93104058956656}, "transactions": ["delivery"], "price": "$", "location": {"address1": "505 Utica Ave", "address2": "", "address3": "", "city": "Brooklyn", "zip_code": "11203", "country": "US", "state": "NY", "display_address": ["505 Utica Ave", "Brooklyn, NY 11203"]}, "phone": "+17186041207", "display_phone": "(718) 604-1207", "distance": 3601.2148064337957}, {"id": "UjNDhc2ZnzFp4dKWUWRIdw", "alias": "mcdonalds-brooklyn-34", "name": "McDonald's", "image_url": "https://s3-media2.fl.yelpcdn.com/bphoto/SdXm1IYDUSlOIGRY5oDDSQ/o.jpg", "is_closed": false, "url": "https://www.yelp.com/biz/mcdonalds-brooklyn-34?adjust_creative=azSZ1YV457_fpKmHVQM9Bg&utm_campaign=yelp_api_v3&utm_medium=api_v3_business_search&utm_source=azSZ1YV457_fpKmHVQM9Bg", "review_count": 22, "categories": [{"alias": "burgers", "title": "Burgers"}, {"alias": "hotdogs", "title": "Fast Food"}, {"alias": "coffee", "title": "Coffee & Tea"}], "rating": 1.5, "coordinates": {"latitude": 40.633153, "longitude": -73.889876}, "transactions": ["delivery"], "price": "$", "location": {"address1": "2028 Rockaway Pkwy", "address2": "", "address3": "", "city": "Brooklyn", "zip_code": "11236", "country": "US", "state": "NY", "display_address": ["2028 Rockaway Pkwy", "Brooklyn, NY 11236"]}, "phone": "+17182410006", "display_phone": "(718) 241-0006", "distance": 1065.118802595302}, {"id": "bxs3-A_7KcUNDRCXvV589Q", "alias": "gerizim-burger-factory-brooklyn-2", "name": "Gerizim Burger Factory", "image_url": "https://s3-media1.fl.yelpcdn.com/bphoto/woqxxJ-jLwSEYou8_Hc1Ug/o.jpg", "is_closed": false, "url": "https://www.yelp.com/biz/gerizim-burger-factory-brooklyn-2?adjust_creative=azSZ1YV457_fpKmHVQM9Bg&utm_campaign=yelp_api_v3&utm_medium=api_v3_business_search&utm_source=azSZ1YV457_fpKmHVQM9Bg", "review_count": 16, "categories": [{"alias": "burgers", "title": "Burgers"}], "rating": 4.0, "coordinates": {"latitude": 40.66988, "longitude": -73.92263}, "transactions": [], "location": {"address1": "560 Ralph Ave", "address2": "", "address3": null, "city": "Brooklyn", "zip_code": "11233", "country": "US", "state": "NY", "display_address": ["560 Ralph Ave", "Brooklyn, NY 11233"]}, "phone": "+13477920730", "display_phone": "(347) 792-0730", "distance": 3903.0963436700927}, {"id": "L0arQX1MmvPDH6FZCug01A", "alias": "crown-fried-chicken-brooklyn-49", "name": "Crown Fried Chicken", "image_url": "https://s3-media2.fl.yelpcdn.com/bphoto/Pf1O6T4vaI31dRZwIIXSBA/o.jpg", "is_closed": false, "url": "https://www.yelp.com/biz/crown-fried-chicken-brooklyn-49?adjust_creative=azSZ1YV457_fpKmHVQM9Bg&utm_campaign=yelp_api_v3&utm_medium=api_v3_business_search&utm_source=azSZ1YV457_fpKmHVQM9Bg", "review_count": 1, "categories": [{"alias": "newamerican", "title": "American (New)"}], "rating": 5.0, "coordinates": {"latitude": 40.6780600547791, "longitude": -73.90754789114}, "transactions": [], "location": {"address1": "2214 Fulton St", "address2": null, "address3": "", "city": "Brooklyn", "zip_code": "11208", "country": "US", "state": "NY", "display_address": ["2214 Fulton St", "Brooklyn, NY 11208"]}, "phone": "+17185522923", "display_phone": "(718) 552-2923", "distance": 4325.932626531364}, {"id": "VzG74046mEIzpUJlKpDTJA", "alias": "checkers-brooklyn-21", "name": "Checkers", "image_url": "https://s3-media3.fl.yelpcdn.com/bphoto/juh6bk12gyRiVcM6O3gnRw/o.jpg", "is_closed": false, "url": "https://www.yelp.com/biz/checkers-brooklyn-21?adjust_creative=azSZ1YV457_fpKmHVQM9Bg&utm_campaign=yelp_api_v3&utm_medium=api_v3_business_search&utm_source=azSZ1YV457_fpKmHVQM9Bg", "review_count": 11, "categories": [{"alias": "burgers", "title": "Burgers"}, {"alias": "hotdogs", "title": "Fast Food"}], "rating": 2.5, "coordinates": {"latitude": 40.6581684924496, "longitude": -73.890078663826}, "transactions": ["delivery"], "price": "$", "location": {"address1": "797 Pennsylvania Ave", "address2": "", "address3": "", "city": "Brooklyn", "zip_code": "11207", "country": "US", "state": "NY", "display_address": ["797 Pennsylvania Ave", "Brooklyn, NY 11207"]}, "phone": "+19178939000", "display_phone": "(917) 893-9000", "distance": 2201.602823812856}, {"id": "LPfugQnk7Sj9VH2Gl-z5Rw", "alias": "tony-pepperoni-pizzeria-ii-brooklyn", "name": "Tony Pepperoni Pizzeria II", "image_url": "", "is_closed": false, "url": "https://www.yelp.com/biz/tony-pepperoni-pizzeria-ii-brooklyn?adjust_creative=azSZ1YV457_fpKmHVQM9Bg&utm_campaign=yelp_api_v3&utm_medium=api_v3_business_search&utm_source=azSZ1YV457_fpKmHVQM9Bg", "review_count": 3, "categories": [{"alias": "pizza", "title": "Pizza"}], "rating": 5.0, "coordinates": {"latitude": 40.619164, "longitude": -73.92639}, "transactions": ["pickup", "delivery"], "location": {"address1": "5011 Avenue N", "address2": null, "address3": null, "city": "Brooklyn", "zip_code": "11234", "country": "US", "state": "NY", "display_address": ["5011 Avenue N", "Brooklyn, NY 11234"]}, "phone": "+17182582458", "display_phone": "(718) 258-2458", "distance": 3229.7582150833878}, {"id": "A0iKnhfCYWUQ7BQepdS18A", "alias": "memes-healthy-nibbles-brooklyn", "name": "Meme's Healthy Nibbles", "image_url": "https://s3-media2.fl.yelpcdn.com/bphoto/Ea4lvm8KDBCBluESL_PQzg/o.jpg", "is_closed": false, "url": "https://www.yelp.com/biz/memes-healthy-nibbles-brooklyn?adjust_creative=azSZ1YV457_fpKmHVQM9Bg&utm_campaign=yelp_api_v3&utm_medium=api_v3_business_search&utm_source=azSZ1YV457_fpKmHVQM9Bg", "review_count": 169, "categories": [{"alias": "burgers", "title": "Burgers"}, {"alias": "juicebars", "title": "Juice Bars & Smoothies"}, {"alias": "organic_stores", "title": "Organic Stores"}], "rating": 4.0, "coordinates": {"latitude": 40.6731149, "longitude": -73.9501833}, "transactions": ["pickup", "delivery"], "price": "$$", "location": {"address1": "707 Nostrand Ave", "address2": "", "address3": "", "city": "Brooklyn", "zip_code": "11216", "country": "US", "state": "NY", "display_address": ["707 Nostrand Ave", "Brooklyn, NY 11216"]}, "phone": "+17184931375", "display_phone": "(718) 493-1375", "distance": 5690.046917848368}, {"id": "ftQ1QsF6XXRe7aDpfEZhBw", "alias": "halal-grill-bros-brooklyn-brooklyn", "name": "Halal Grill Bros Brooklyn", "image_url": "https://s3-media3.fl.yelpcdn.com/bphoto/SO6OcFPlZq9tiICBdrfmeg/o.jpg", "is_closed": false, "url": "https://www.yelp.com/biz/halal-grill-bros-brooklyn-brooklyn?adjust_creative=azSZ1YV457_fpKmHVQM9Bg&utm_campaign=yelp_api_v3&utm_medium=api_v3_business_search&utm_source=azSZ1YV457_fpKmHVQM9Bg", "review_count": 29, "categories": [{"alias": "halal", "title": "Halal"}], "rating": 3.5, "coordinates": {"latitude": 40.60915, "longitude": -73.9222}, "transactions": ["pickup", "delivery"], "location": {"address1": "2508 Flatbush Ave", "address2": "", "address3": null, "city": "Brooklyn", "zip_code": "11234", "country": "US", "state": "NY", "display_address": ["2508 Flatbush Ave", "Brooklyn, NY 11234"]}, "phone": "", "display_phone": "", "distance": 3915.183400531836}, {"id": "hrFPHvJSgRVBGELWVcwtMg", "alias": "georges-luncheonette-brooklyn", "name": "George's Luncheonette", "image_url": "https://s3-media4.fl.yelpcdn.com/bphoto/4bg5bDkBOGaa7NQ-FkQVMw/o.jpg", "is_closed": false, "url": "https://www.yelp.com/biz/georges-luncheonette-brooklyn?adjust_creative=azSZ1YV457_fpKmHVQM9Bg&utm_campaign=yelp_api_v3&utm_medium=api_v3_business_search&utm_source=azSZ1YV457_fpKmHVQM9Bg", "review_count": 24, "categories": [{"alias": "diners", "title": "Diners"}], "rating": 4.5, "coordinates": {"latitude": 40.61916, "longitude": -73.9267}, "transactions": ["delivery"], "price": "$", "location": {"address1": "2157 Utica Ave", "address2": "", "address3": "", "city": "Brooklyn", "zip_code": "11234", "country": "US", "state": "NY", "display_address": ["2157 Utica Ave", "Brooklyn, NY 11234"]}, "phone": "+17183779182", "display_phone": "(718) 377-9182", "distance": 3240.948987034353}, {"id": "D1lWMLqtRL6qy7f7Y88j1Q", "alias": "mcdonalds-brooklyn-6", "name": "McDonald's", "image_url": "https://s3-media2.fl.yelpcdn.com/bphoto/cNqE9buEXcAxg3wccHQWEA/o.jpg", "is_closed": false, "url": "https://www.yelp.com/biz/mcdonalds-brooklyn-6?adjust_creative=azSZ1YV457_fpKmHVQM9Bg&utm_campaign=yelp_api_v3&utm_medium=api_v3_business_search&utm_source=azSZ1YV457_fpKmHVQM9Bg", "review_count": 13, "categories": [{"alias": "hotdogs", "title": "Fast Food"}, {"alias": "burgers", "title": "Burgers"}, {"alias": "coffee", "title": "Coffee & Tea"}], "rating": 2.0, "coordinates": {"latitude": 40.6337730375557, "longitude": -73.9154999741231}, "transactions": ["delivery"], "price": "$", "location": {"address1": "7602 Flatlands Ave", "address2": "", "address3": "", "city": "Brooklyn", "zip_code": "11236", "country": "US", "state": "NY", "display_address": ["7602 Flatlands Ave", "Brooklyn, NY 11236"]}, "phone": "+17184448654", "display_phone": "(718) 444-8654", "distance": 1521.6735396531196}, {"id": "_AyzkAYOghsaXz2Z6fB0ng", "alias": "a-and-c-coffee-shop-brooklyn", "name": "A & C Coffee Shop", "image_url": "https://s3-media4.fl.yelpcdn.com/bphoto/r1UT31zTCKKGi56A-l53gQ/o.jpg", "is_closed": false, "url": "https://www.yelp.com/biz/a-and-c-coffee-shop-brooklyn?adjust_creative=azSZ1YV457_fpKmHVQM9Bg&utm_campaign=yelp_api_v3&utm_medium=api_v3_business_search&utm_source=azSZ1YV457_fpKmHVQM9Bg", "review_count": 7, "categories": [{"alias": "restaurants", "title": "Restaurants"}], "rating": 4.0, "coordinates": {"latitude": 40.64955, "longitude": -73.91602}, "transactions": ["pickup", "delivery"], "price": "$", "location": {"address1": "9002 Avenue B", "address2": "", "address3": "", "city": "Brooklyn", "zip_code": "11236", "country": "US", "state": "NY", "display_address": ["9002 Avenue B", "Brooklyn, NY 11236"]}, "phone": "+17183428395", "display_phone": "(718) 342-8395", "distance": 1791.0798935501734}, {"id": "dKXq_7HzPjnLzZi68bBmgw", "alias": "rico-chimi-brooklyn-2", "name": "Rico Chimi Brooklyn", "image_url": "https://s3-media2.fl.yelpcdn.com/bphoto/Qu5iu7BgZ8-DOgFyoQEHUg/o.jpg", "is_closed": false, "url": "https://www.yelp.com/biz/rico-chimi-brooklyn-2?adjust_creative=azSZ1YV457_fpKmHVQM9Bg&utm_campaign=yelp_api_v3&utm_medium=api_v3_business_search&utm_source=azSZ1YV457_fpKmHVQM9Bg", "review_count": 49, "categories": [{"alias": "burgers", "title": "Burgers"}, {"alias": "hotdogs", "title": "Fast Food"}], "rating": 3.0, "coordinates": {"latitude": 40.677570583568, "longitude": -73.8860231637955}, "transactions": ["pickup", "delivery"], "price": "$$", "location": {"address1": "2928 Atlantic Ave", "address2": "", "address3": "", "city": "Brooklyn", "zip_code": "11207", "country": "US", "state": "NY", "display_address": ["2928 Atlantic Ave", "Brooklyn, NY 11207"]}, "phone": "+13477157272", "display_phone": "(347) 715-7272", "distance": 4364.134415144405}, {"id": "jVYyth-tq-o9o6T54oAWOA", "alias": "the-ozone-diner-howard-beach", "name": "The Ozone Diner", "image_url": "https://s3-media1.fl.yelpcdn.com/bphoto/otBeOvoVU4GAdOz6NpqGkA/o.jpg", "is_closed": false, "url": "https://www.yelp.com/biz/the-ozone-diner-howard-beach?adjust_creative=azSZ1YV457_fpKmHVQM9Bg&utm_campaign=yelp_api_v3&utm_medium=api_v3_business_search&utm_source=azSZ1YV457_fpKmHVQM9Bg", "review_count": 281, "categories": [{"alias": "breakfast_brunch", "title": "Breakfast & Brunch"}, {"alias": "diners", "title": "Diners"}], "rating": 4.0, "coordinates": {"latitude": 40.67199053966301, "longitude": -73.8571566}, "transactions": ["pickup", "delivery"], "price": "$$", "location": {"address1": "133-35 79th St", "address2": "", "address3": "", "city": "Howard Beach", "zip_code": "11414", "country": "US", "state": "NY", "display_address": ["133-35 79th St", "Howard Beach, NY 11414"]}, "phone": "+17182963141", "display_phone": "(718) 296-3141", "distance": 5053.080353455008}, {"id": "kM0eMAi67gMU7PPlOfkJGQ", "alias": "rite-aid-brooklyn-54", "name": "Rite Aid", "image_url": "https://s3-media3.fl.yelpcdn.com/bphoto/H_mM3RuNFfIUC_692Ws_WA/o.jpg", "is_closed": false, "url": "https://www.yelp.com/biz/rite-aid-brooklyn-54?adjust_creative=azSZ1YV457_fpKmHVQM9Bg&utm_campaign=yelp_api_v3&utm_medium=api_v3_business_search&utm_source=azSZ1YV457_fpKmHVQM9Bg", "review_count": 10, "categories": [{"alias": "drugstores", "title": "Drugstores"}, {"alias": "convenience", "title": "Convenience Stores"}], "rating": 2.0, "coordinates": {"latitude": 40.6345323481039, "longitude": -73.913841702124}, "transactions": ["delivery"], "price": "$$", "location": {"address1": "7812 Flatlands Ave", "address2": "", "address3": "", "city": "Brooklyn", "zip_code": "11236", "country": "US", "state": "NY", "display_address": ["7812 Flatlands Ave", "Brooklyn, NY 11236"]}, "phone": "+17185315023", "display_phone": "(718) 531-5023", "distance": 1359.1888688319073}, {"id": "KDqLAjE4h-OHOKFnCtw71A", "alias": "nostrand-avenue-pizza-new-york-2", "name": "Nostrand Avenue Pizza", "image_url": "https://s3-media2.fl.yelpcdn.com/bphoto/X8HQihsR_8vxlUyf57kweA/o.jpg", "is_closed": false, "url": "https://www.yelp.com/biz/nostrand-avenue-pizza-new-york-2?adjust_creative=azSZ1YV457_fpKmHVQM9Bg&utm_campaign=yelp_api_v3&utm_medium=api_v3_business_search&utm_source=azSZ1YV457_fpKmHVQM9Bg", "review_count": 7, "categories": [{"alias": "pizza", "title": "Pizza"}, {"alias": "chicken_wings", "title": "Chicken Wings"}, {"alias": "burgers", "title": "Burgers"}], "rating": 4.0, "coordinates": {"latitude": 40.6780299, "longitude": -73.9495531}, "transactions": ["pickup", "delivery"], "location": {"address1": "563 Nostrand ave", "address2": null, "address3": "", "city": "New York", "zip_code": "11216", "country": "US", "state": "NY", "display_address": ["563 Nostrand ave", "New York, NY 11216"]}, "phone": "+17184841992", "display_phone": "(718) 484-1992", "distance": 6024.201340647175}, {"id": "VAsueR4O3CMxktcr9O2UGA", "alias": "il-forno-brooklyn-2", "name": "Il Forno", "image_url": "https://s3-media1.fl.yelpcdn.com/bphoto/bAaR6bFzZVh0hQP1lyPapw/o.jpg", "is_closed": false, "url": "https://www.yelp.com/biz/il-forno-brooklyn-2?adjust_creative=azSZ1YV457_fpKmHVQM9Bg&utm_campaign=yelp_api_v3&utm_medium=api_v3_business_search&utm_source=azSZ1YV457_fpKmHVQM9Bg", "review_count": 3, "categories": [{"alias": "pizza", "title": "Pizza"}, {"alias": "italian", "title": "Italian"}], "rating": 4.5, "coordinates": {"latitude": 40.651209, "longitude": -73.946385}, "transactions": ["pickup", "delivery"], "location": {"address1": "3307 Church Ave", "address2": "", "address3": null, "city": "Brooklyn", "zip_code": "11203", "country": "US", "state": "NY", "display_address": ["3307 Church Ave", "Brooklyn, NY 11203"]}, "phone": "", "display_phone": "", "distance": 4181.558434878142}, {"id": "tgHvX9Toe3CwWhEZFxUvUA", "alias": "kennedy-fried-chicken-brooklyn-28", "name": "Kennedy Fried Chicken", "image_url": "https://s3-media1.fl.yelpcdn.com/bphoto/pI1D8Q-C9fYAXZPdByPNwA/o.jpg", "is_closed": false, "url": "https://www.yelp.com/biz/kennedy-fried-chicken-brooklyn-28?adjust_creative=azSZ1YV457_fpKmHVQM9Bg&utm_campaign=yelp_api_v3&utm_medium=api_v3_business_search&utm_source=azSZ1YV457_fpKmHVQM9Bg", "review_count": 1, "categories": [{"alias": "fooddeliveryservices", "title": "Food Delivery Services"}, {"alias": "hotdogs", "title": "Fast Food"}, {"alias": "sandwiches", "title": "Sandwiches"}], "rating": 3.0, "coordinates": {"latitude": 40.649575632901644, "longitude": -73.91601392414236}, "transactions": ["delivery"], "location": {"address1": "9004 Ave B", "address2": null, "address3": null, "city": "Brooklyn", "zip_code": "11236", "country": "US", "state": "NY", "display_address": ["9004 Ave B", "Brooklyn, NY 11236"]}, "phone": "+17182826500", "display_phone": "(718) 282-6500", "distance": 1800.1866103537527}, {"id": "Voz2AQlo-K_nnPJOqJ9n_w", "alias": "wendys-brooklyn", "name": "Wendy's", "image_url": "https://s3-media3.fl.yelpcdn.com/bphoto/OMSw2cSs5wlu3bAGXIOqBg/o.jpg", "is_closed": false, "url": "https://www.yelp.com/biz/wendys-brooklyn?adjust_creative=azSZ1YV457_fpKmHVQM9Bg&utm_campaign=yelp_api_v3&utm_medium=api_v3_business_search&utm_source=azSZ1YV457_fpKmHVQM9Bg", "review_count": 33, "categories": [{"alias": "burgers", "title": "Burgers"}, {"alias": "hotdogs", "title": "Fast Food"}], "rating": 1.5, "coordinates": {"latitude": 40.634972, "longitude": -73.914662}, "transactions": ["delivery"], "price": "$", "location": {"address1": "78-11 Flatlands Avenue", "address2": "", "address3": "", "city": "Brooklyn", "zip_code": "11236", "country": "US", "state": "NY", "display_address": ["78-11 Flatlands Avenue", "Brooklyn, NY 11236"]}, "phone": "+17182511801", "display_phone": "(718) 251-1801", "distance": 1403.439645212888}, {"id": "V9Aa3cQ86s0YZEKj61-Dog", "alias": "mannys-brooklyn-2", "name": "Mannys", "image_url": "https://s3-media3.fl.yelpcdn.com/bphoto/8KxBdEk5Z2aSZ8SCLysDrg/o.jpg", "is_closed": false, "url": "https://www.yelp.com/biz/mannys-brooklyn-2?adjust_creative=azSZ1YV457_fpKmHVQM9Bg&utm_campaign=yelp_api_v3&utm_medium=api_v3_business_search&utm_source=azSZ1YV457_fpKmHVQM9Bg", "review_count": 2, "categories": [{"alias": "pizza", "title": "Pizza"}, {"alias": "tradamerican", "title": "American (Traditional)"}, {"alias": "burgers", "title": "Burgers"}], "rating": 3.0, "coordinates": {"latitude": 40.66785, "longitude": -73.90622}, "transactions": ["delivery", "pickup"], "location": {"address1": "459 Mother Gaston Blvd", "address2": "", "address3": null, "city": "Brooklyn", "zip_code": "11212", "country": "US", "state": "NY", "display_address": ["459 Mother Gaston Blvd", "Brooklyn, NY 11212"]}, "phone": "+17184851224", "display_phone": "(718) 485-1224", "distance": 3198.2154549503284}, {"id": "ZODXUEfwTUyfriaoW3uowg", "alias": "kennedy-fried-chicken-brooklyn-13", "name": "Kennedy Fried Chicken", "image_url": "https://s3-media1.fl.yelpcdn.com/bphoto/4BwrYI4KQSx3b9Znw9lb2w/o.jpg", "is_closed": false, "url": "https://www.yelp.com/biz/kennedy-fried-chicken-brooklyn-13?adjust_creative=azSZ1YV457_fpKmHVQM9Bg&utm_campaign=yelp_api_v3&utm_medium=api_v3_business_search&utm_source=azSZ1YV457_fpKmHVQM9Bg", "review_count": 2, "categories": [{"alias": "restaurants", "title": "Restaurants"}], "rating": 4.0, "coordinates": {"latitude": 40.6502399, "longitude": -73.93042}, "transactions": ["delivery", "pickup"], "location": {"address1": "938 Utica Ave", "address2": "", "address3": "", "city": "Brooklyn", "zip_code": "11203", "country": "US", "state": "NY", "display_address": ["938 Utica Ave", "Brooklyn, NY 11203"]}, "phone": "+17187031570", "display_phone": "(718) 703-1570", "distance": 2889.0697604831776}, {"id": "URwKCZfBQwOfxaZuK9uvzg", "alias": "original-napolis-pizza-brooklyn-2", "name": "Original Napoli's Pizza", "image_url": "https://s3-media3.fl.yelpcdn.com/bphoto/4pj7MVe3kCCuUHJwMxAX1g/o.jpg", "is_closed": false, "url": "https://www.yelp.com/biz/original-napolis-pizza-brooklyn-2?adjust_creative=azSZ1YV457_fpKmHVQM9Bg&utm_campaign=yelp_api_v3&utm_medium=api_v3_business_search&utm_source=azSZ1YV457_fpKmHVQM9Bg", "review_count": 49, "categories": [{"alias": "pizza", "title": "Pizza"}, {"alias": "italian", "title": "Italian"}], "rating": 3.5, "coordinates": {"latitude": 40.673224, "longitude": -73.869757}, "transactions": ["delivery", "pickup"], "price": "$", "location": {"address1": "594 Crescent St", "address2": "", "address3": "", "city": "Brooklyn", "zip_code": "11208", "country": "US", "state": "NY", "display_address": ["594 Crescent St", "Brooklyn, NY 11208"]}, "phone": "+17188279734", "display_phone": "(718) 827-9734", "distance": 4487.951481638951}, {"id": "vk9EHO8qqwFacLeelnbPcg", "alias": "buffalo-wild-wings-brooklyn-4", "name": "Buffalo Wild Wings", "image_url": "https://s3-media2.fl.yelpcdn.com/bphoto/mwgiufezZylHsY-U0RQPKg/o.jpg", "is_closed": false, "url": "https://www.yelp.com/biz/buffalo-wild-wings-brooklyn-4?adjust_creative=azSZ1YV457_fpKmHVQM9Bg&utm_campaign=yelp_api_v3&utm_medium=api_v3_business_search&utm_source=azSZ1YV457_fpKmHVQM9Bg", "review_count": 366, "categories": [{"alias": "sportsbars", "title": "Sports Bars"}, {"alias": "tradamerican", "title": "American (Traditional)"}, {"alias": "chicken_wings", "title": "Chicken Wings"}], "rating": 2.0, "coordinates": {"latitude": 40.6552718773655, "longitude": -73.8681976155914}, "transactions": ["delivery", "pickup"], "price": "$$", "location": {"address1": "632 Gateway Dr", "address2": "", "address3": "", "city": "Brooklyn", "zip_code": "11239", "country": "US", "state": "NY", "display_address": ["632 Gateway Dr", "Brooklyn, NY 11239"]}, "phone": "+17182359453", "display_phone": "(718) 235-9453", "distance": 3141.4544983233677}, {"id": "GGFnZGZr9KKq8KHViR6XIQ", "alias": "caribbean-kitchen-brooklyn", "name": "Caribbean Kitchen", "image_url": "https://s3-media1.fl.yelpcdn.com/bphoto/VM8BMEX5xen6g19Gzs4gGw/o.jpg", "is_closed": false, "url": "https://www.yelp.com/biz/caribbean-kitchen-brooklyn?adjust_creative=azSZ1YV457_fpKmHVQM9Bg&utm_campaign=yelp_api_v3&utm_medium=api_v3_business_search&utm_source=azSZ1YV457_fpKmHVQM9Bg", "review_count": 30, "categories": [{"alias": "caribbean", "title": "Caribbean"}, {"alias": "hotdogs", "title": "Fast Food"}], "rating": 3.5, "coordinates": {"latitude": 40.668263, "longitude": -73.931372}, "transactions": ["delivery", "pickup"], "location": {"address1": "286 Utica Ave", "address2": "", "address3": null, "city": "Brooklyn", "zip_code": "11213", "country": "US", "state": "NY", "display_address": ["286 Utica Ave", "Brooklyn, NY 11213"]}, "phone": "+13474421130", "display_phone": "(347) 442-1130", "distance": 4186.167096214956}, {"id": "w0nxXcScsOGDLvoXnOgaxA", "alias": "rite-aid-brooklyn-30", "name": "Rite Aid", "image_url": "https://s3-media1.fl.yelpcdn.com/bphoto/8q6UszMrdPqa8O94f0p1jw/o.jpg", "is_closed": false, "url": "https://www.yelp.com/biz/rite-aid-brooklyn-30?adjust_creative=azSZ1YV457_fpKmHVQM9Bg&utm_campaign=yelp_api_v3&utm_medium=api_v3_business_search&utm_source=azSZ1YV457_fpKmHVQM9Bg", "review_count": 12, "categories": [{"alias": "drugstores", "title": "Drugstores"}, {"alias": "convenience", "title": "Convenience Stores"}], "rating": 3.5, "coordinates": {"latitude": 40.615438, "longitude": -73.914358}, "transactions": ["delivery"], "price": "$$", "location": {"address1": "2064 Mill Ave", "address2": "", "address3": "", "city": "Brooklyn", "zip_code": "11234", "country": "US", "state": "NY", "display_address": ["2064 Mill Ave", "Brooklyn, NY 11234"]}, "phone": "+17185310408", "display_phone": "(718) 531-0408", "distance": 2977.5299016981025}, {"id": "U4hVgfbgUMUHpXemMDHGSA", "alias": "white-castle-brooklyn-11", "name": "White Castle", "image_url": "https://s3-media1.fl.yelpcdn.com/bphoto/n_--Npw1PEz613p8zYcxOw/o.jpg", "is_closed": false, "url": "https://www.yelp.com/biz/white-castle-brooklyn-11?adjust_creative=azSZ1YV457_fpKmHVQM9Bg&utm_campaign=yelp_api_v3&utm_medium=api_v3_business_search&utm_source=azSZ1YV457_fpKmHVQM9Bg", "review_count": 26, "categories": [{"alias": "hotdogs", "title": "Fast Food"}, {"alias": "burgers", "title": "Burgers"}], "rating": 3.0, "coordinates": {"latitude": 40.655849, "longitude": -73.888983}, "transactions": ["delivery", "pickup"], "price": "$$", "location": {"address1": "900 Pennsylvania Ave", "address2": "", "address3": "", "city": "Brooklyn", "zip_code": "11207", "country": "US", "state": "NY", "display_address": ["900 Pennsylvania Ave", "Brooklyn, NY 11207"]}, "phone": "+17182721664", "display_phone": "(718) 272-1664", "distance": 2000.038959249517}, {"id": "jRiMLcjWiNfGJlQbu12-HQ", "alias": "finest-food-house-brooklyn", "name": "Finest Food House", "image_url": "https://s3-media2.fl.yelpcdn.com/bphoto/cfQk54d7wXZY_0WeyPtNEQ/o.jpg", "is_closed": false, "url": "https://www.yelp.com/biz/finest-food-house-brooklyn?adjust_creative=azSZ1YV457_fpKmHVQM9Bg&utm_campaign=yelp_api_v3&utm_medium=api_v3_business_search&utm_source=azSZ1YV457_fpKmHVQM9Bg", "review_count": 3, "categories": [{"alias": "indpak", "title": "Indian"}], "rating": 4.5, "coordinates": {"latitude": 40.678554, "longitude": -73.869642}, "transactions": ["delivery", "pickup"], "location": {"address1": "1075A Liberty Ave", "address2": "", "address3": null, "city": "Brooklyn", "zip_code": "11208", "country": "US", "state": "NY", "display_address": ["1075A Liberty Ave", "Brooklyn, NY 11208"]}, "phone": "+17187087611", "display_phone": "(718) 708-7611", "distance": 4993.994236165102}, {"id": "MdYuVOA4LUDYa-6oJo2Hyw", "alias": "sky-high-deli-grocery-east-flatbush", "name": "Sky High Deli Grocery", "image_url": "https://s3-media1.fl.yelpcdn.com/bphoto/ExzYWg_X2SxAHBCaJGY7Bg/o.jpg", "is_closed": false, "url": "https://www.yelp.com/biz/sky-high-deli-grocery-east-flatbush?adjust_creative=azSZ1YV457_fpKmHVQM9Bg&utm_campaign=yelp_api_v3&utm_medium=api_v3_business_search&utm_source=azSZ1YV457_fpKmHVQM9Bg", "review_count": 4, "categories": [{"alias": "delis", "title": "Delis"}], "rating": 5.0, "coordinates": {"latitude": 40.633815, "longitude": -73.948028}, "transactions": ["delivery", "pickup"], "location": {"address1": "2112 Nostrand Ave", "address2": "", "address3": "", "city": "East Flatbush", "zip_code": "11210", "country": "US", "state": "NY", "display_address": ["2112 Nostrand Ave", "East Flatbush, NY 11210"]}, "phone": "+17184213242", "display_phone": "(718) 421-3242", "distance": 4162.42154635028}, {"id": "z8t9L9NbXyXVPCzYAjY05Q", "alias": "royal-fried-chicken-brooklyn-2", "name": "Royal Fried Chicken", "image_url": "https://s3-media1.fl.yelpcdn.com/bphoto/SjUn-xVRBlJIkZh2EXl1cg/o.jpg", "is_closed": false, "url": "https://www.yelp.com/biz/royal-fried-chicken-brooklyn-2?adjust_creative=azSZ1YV457_fpKmHVQM9Bg&utm_campaign=yelp_api_v3&utm_medium=api_v3_business_search&utm_source=azSZ1YV457_fpKmHVQM9Bg", "review_count": 4, "categories": [{"alias": "hotdogs", "title": "Fast Food"}, {"alias": "comfortfood", "title": "Comfort Food"}, {"alias": "halal", "title": "Halal"}], "rating": 3.0, "coordinates": {"latitude": 40.6563299, "longitude": -73.91508}, "transactions": ["delivery", "pickup"], "price": "$$", "location": {"address1": "496 Rockaway Pkwy", "address2": "", "address3": "", "city": "Brooklyn", "zip_code": "11212", "country": "US", "state": "NY", "display_address": ["496 Rockaway Pkwy", "Brooklyn, NY 11212"]}, "phone": "+17183468100", "display_phone": "(718) 346-8100", "distance": 2285.161985128669}, {"id": "qHdOe8IPV1qQQV8WdxRIEQ", "alias": "neighborhood-brother-deli-brooklyn", "name": "Neighborhood Brother Deli", "image_url": "https://s3-media1.fl.yelpcdn.com/bphoto/ehja9d_ADdbsiJmvpcOyPA/o.jpg", "is_closed": false, "url": "https://www.yelp.com/biz/neighborhood-brother-deli-brooklyn?adjust_creative=azSZ1YV457_fpKmHVQM9Bg&utm_campaign=yelp_api_v3&utm_medium=api_v3_business_search&utm_source=azSZ1YV457_fpKmHVQM9Bg", "review_count": 5, "categories": [{"alias": "burgers", "title": "Burgers"}], "rating": 4.5, "coordinates": {"latitude": 40.613111, "longitude": -73.922118}, "transactions": ["delivery", "pickup"], "location": {"address1": "5401 Ave T", "address2": null, "address3": "", "city": "Brooklyn", "zip_code": "11234", "country": "US", "state": "NY", "display_address": ["5401 Ave T", "Brooklyn, NY 11234"]}, "phone": "+13474923043", "display_phone": "(347) 492-3043", "distance": 3523.3484180991045}, {"id": "k-voh5qVtIlki3fL8EtqIg", "alias": "ihop-brooklyn-6", "name": "IHOP", "image_url": "https://s3-media3.fl.yelpcdn.com/bphoto/-rokwYtv2rtSZnlL4sTmXg/o.jpg", "is_closed": false, "url": "https://www.yelp.com/biz/ihop-brooklyn-6?adjust_creative=azSZ1YV457_fpKmHVQM9Bg&utm_campaign=yelp_api_v3&utm_medium=api_v3_business_search&utm_source=azSZ1YV457_fpKmHVQM9Bg", "review_count": 135, "categories": [{"alias": "breakfast_brunch", "title": "Breakfast & Brunch"}, {"alias": "tradamerican", "title": "American (Traditional)"}, {"alias": "burgers", "title": "Burgers"}], "rating": 3.5, "coordinates": {"latitude": 40.65022, "longitude": -73.89013}, "transactions": ["delivery", "pickup"], "price": "$$", "location": {"address1": "11000 Flatlands Ave", "address2": "", "address3": "", "city": "Brooklyn", "zip_code": "11207", "country": "US", "state": "NY", "display_address": ["11000 Flatlands Ave", "Brooklyn, NY 11207"]}, "phone": "+17182574467", "display_phone": "(718) 257-4467", "distance": 1405.3528690153364}, {"id": "8G7FSv-uR_kdhFkP6RPZ0w", "alias": "gourmet-grill-brooklyn", "name": "Gourmet Grill", "image_url": "https://s3-media2.fl.yelpcdn.com/bphoto/nPFcJuZWvuDLKIGMD2gN-g/o.jpg", "is_closed": false, "url": "https://www.yelp.com/biz/gourmet-grill-brooklyn?adjust_creative=azSZ1YV457_fpKmHVQM9Bg&utm_campaign=yelp_api_v3&utm_medium=api_v3_business_search&utm_source=azSZ1YV457_fpKmHVQM9Bg", "review_count": 118, "categories": [{"alias": "newamerican", "title": "American (New)"}], "rating": 3.5, "coordinates": {"latitude": 40.61937, "longitude": -73.916}, "transactions": ["delivery", "pickup"], "price": "$$", "location": {"address1": "6334 Ave N", "address2": "", "address3": "", "city": "Brooklyn", "zip_code": "11234", "country": "US", "state": "NY", "display_address": ["6334 Ave N", "Brooklyn, NY 11234"]}, "phone": "+17182412345", "display_phone": "(718) 241-2345", "distance": 2654.0729704159617}, {"id": "nuL_hICtcybgYV2x4IWGZQ", "alias": "2181-italian-bros-pizza-brooklyn", "name": "2181 Italian Bros Pizza", "image_url": "https://s3-media2.fl.yelpcdn.com/bphoto/ClfbPcI71KjTMNpuCy8D6A/o.jpg", "is_closed": false, "url": "https://www.yelp.com/biz/2181-italian-bros-pizza-brooklyn?adjust_creative=azSZ1YV457_fpKmHVQM9Bg&utm_campaign=yelp_api_v3&utm_medium=api_v3_business_search&utm_source=azSZ1YV457_fpKmHVQM9Bg", "review_count": 9, "categories": [{"alias": "pizza", "title": "Pizza"}, {"alias": "italian", "title": "Italian"}], "rating": 4.0, "coordinates": {"latitude": 40.63174, "longitude": -73.94739}, "transactions": ["delivery", "pickup"], "location": {"address1": "2181 Nostrand Ave", "address2": "", "address3": null, "city": "Brooklyn", "zip_code": "11210", "country": "US", "state": "NY", "display_address": ["2181 Nostrand Ave", "Brooklyn, NY 11210"]}, "phone": "+13472211999", "display_phone": "(347) 221-1999", "distance": 4160.449745395009}, {"id": "lUryTx9OHTNR2fs0vkSRYw", "alias": "wendys-brooklyn-14", "name": "Wendy's", "image_url": "https://s3-media3.fl.yelpcdn.com/bphoto/D3yRvx8xyDot7QJ75y60Ug/o.jpg", "is_closed": false, "url": "https://www.yelp.com/biz/wendys-brooklyn-14?adjust_creative=azSZ1YV457_fpKmHVQM9Bg&utm_campaign=yelp_api_v3&utm_medium=api_v3_business_search&utm_source=azSZ1YV457_fpKmHVQM9Bg", "review_count": 31, "categories": [{"alias": "burgers", "title": "Burgers"}, {"alias": "hotdogs", "title": "Fast Food"}], "rating": 1.5, "coordinates": {"latitude": 40.648567, "longitude": -73.914596}, "transactions": ["delivery"], "price": "$", "location": {"address1": "9001 Ditmas Avenue", "address2": "", "address3": "", "city": "Brooklyn", "zip_code": "11236", "country": "US", "state": "NY", "display_address": ["9001 Ditmas Avenue", "Brooklyn, NY 11236"]}, "phone": "+17183454763", "display_phone": "(718) 345-4763", "distance": 1633.1545795361028}, {"id": "rUmYzsdlt8K6f_x7qH3SsQ", "alias": "nostrand-donut-shop-brooklyn", "name": "Nostrand Donut Shop", "image_url": "https://s3-media3.fl.yelpcdn.com/bphoto/wEiM_L5URnFwDXVqMdEB_w/o.jpg", "is_closed": false, "url": "https://www.yelp.com/biz/nostrand-donut-shop-brooklyn?adjust_creative=azSZ1YV457_fpKmHVQM9Bg&utm_campaign=yelp_api_v3&utm_medium=api_v3_business_search&utm_source=azSZ1YV457_fpKmHVQM9Bg", "review_count": 44, "categories": [{"alias": "bakeries", "title": "Bakeries"}, {"alias": "breakfast_brunch", "title": "Breakfast & Brunch"}, {"alias": "donuts", "title": "Donuts"}], "rating": 4.0, "coordinates": {"latitude": 40.651, "longitude": -73.94943}, "transactions": ["delivery", "pickup"], "price": "$", "location": {"address1": "1449 Nostrand Ave", "address2": "", "address3": "", "city": "Brooklyn", "zip_code": "11226", "country": "US", "state": "NY", "display_address": ["1449 Nostrand Ave", "Brooklyn, NY 11226"]}, "phone": "+17188263008", "display_phone": "(718) 826-3008", "distance": 4417.223958254025}, {"id": "eMbxUEaIZGJOWyMPHUGFbQ", "alias": "white-castle-brooklyn-2", "name": "White Castle", "image_url": "https://s3-media2.fl.yelpcdn.com/bphoto/MoGrNPNyae_WgEwTEpEjjg/o.jpg", "is_closed": false, "url": "https://www.yelp.com/biz/white-castle-brooklyn-2?adjust_creative=azSZ1YV457_fpKmHVQM9Bg&utm_campaign=yelp_api_v3&utm_medium=api_v3_business_search&utm_source=azSZ1YV457_fpKmHVQM9Bg", "review_count": 58, "categories": [{"alias": "hotdogs", "title": "Fast Food"}, {"alias": "burgers", "title": "Burgers"}], "rating": 2.0, "coordinates": {"latitude": 40.66324, "longitude": -73.93212}, "transactions": ["delivery", "pickup"], "price": "$", "location": {"address1": "846 Empire Blvd", "address2": "", "address3": "", "city": "Brooklyn", "zip_code": "11213", "country": "US", "state": "NY", "display_address": ["846 Empire Blvd", "Brooklyn, NY 11213"]}, "phone": "+17187563377", "display_phone": "(718) 756-3377", "distance": 3825.668857371696}, {"id": "W03QrSdlo7QUhqIlSgxwyw", "alias": "wendys-brooklyn-3", "name": "Wendy's", "image_url": "https://s3-media3.fl.yelpcdn.com/bphoto/3sGBwVwl6gPEqKumD3_IyA/o.jpg", "is_closed": false, "url": "https://www.yelp.com/biz/wendys-brooklyn-3?adjust_creative=azSZ1YV457_fpKmHVQM9Bg&utm_campaign=yelp_api_v3&utm_medium=api_v3_business_search&utm_source=azSZ1YV457_fpKmHVQM9Bg", "review_count": 37, "categories": [{"alias": "hotdogs", "title": "Fast Food"}, {"alias": "burgers", "title": "Burgers"}], "rating": 1.5, "coordinates": {"latitude": 40.65814, "longitude": -73.8908}, "transactions": ["delivery"], "price": "$", "location": {"address1": "1916 Linden Blvd", "address2": "", "address3": "", "city": "Brooklyn", "zip_code": "11207", "country": "US", "state": "NY", "display_address": ["1916 Linden Blvd", "Brooklyn, NY 11207"]}, "phone": "+17182728725", "display_phone": "(718) 272-8725", "distance": 2176.9557436833998}, {"id": "YgQcq1az06YSk0Avas74DA", "alias": "burger-king-brooklyn-40", "name": "Burger King", "image_url": "https://s3-media3.fl.yelpcdn.com/bphoto/N8VHuh2jqoXs-xSLU88V6A/o.jpg", "is_closed": false, "url": "https://www.yelp.com/biz/burger-king-brooklyn-40?adjust_creative=azSZ1YV457_fpKmHVQM9Bg&utm_campaign=yelp_api_v3&utm_medium=api_v3_business_search&utm_source=azSZ1YV457_fpKmHVQM9Bg", "review_count": 2, "categories": [{"alias": "hotdogs", "title": "Fast Food"}, {"alias": "burgers", "title": "Burgers"}], "rating": 1.0, "coordinates": {"latitude": 40.66810848244589, "longitude": -73.93133657356674}, "transactions": ["delivery", "pickup"], "price": "$", "location": {"address1": "292 Utica Ave", "address2": "", "address3": null, "city": "Brooklyn", "zip_code": "11213", "country": "US", "state": "NY", "display_address": ["292 Utica Ave", "Brooklyn, NY 11213"]}, "phone": "+13474257703", "display_phone": "(347) 425-7703", "distance": 4170.20307958531}, {"id": "Z_ixLnZBb_EhJVsqZ-5AlA", "alias": "ihop-brooklyn-5", "name": "IHOP", "image_url": "https://s3-media3.fl.yelpcdn.com/bphoto/aQUw2V7GCDsDVbV6CrCQSw/o.jpg", "is_closed": false, "url": "https://www.yelp.com/biz/ihop-brooklyn-5?adjust_creative=azSZ1YV457_fpKmHVQM9Bg&utm_campaign=yelp_api_v3&utm_medium=api_v3_business_search&utm_source=azSZ1YV457_fpKmHVQM9Bg", "review_count": 136, "categories": [{"alias": "breakfast_brunch", "title": "Breakfast & Brunch"}, {"alias": "tradamerican", "title": "American (Traditional)"}, {"alias": "burgers", "title": "Burgers"}], "rating": 2.5, "coordinates": {"latitude": 40.62625, "longitude": -73.91758}, "transactions": ["delivery", "pickup"], "price": "$$", "location": {"address1": "2101 Ralph Ave", "address2": "", "address3": "", "city": "Brooklyn", "zip_code": "11234", "country": "US", "state": "NY", "display_address": ["2101 Ralph Ave", "Brooklyn, NY 11234"]}, "phone": "+17182512262", "display_phone": "(718) 251-2262", "distance": 2148.558755424934}, {"id": "qfHgg7ibp1SNs-0tp1OIiA", "alias": "fulton-halal-grill-brooklyn", "name": "Fulton Halal Grill", "image_url": "https://s3-media3.fl.yelpcdn.com/bphoto/_CLnpEeNb3hG585Nac5j-A/o.jpg", "is_closed": false, "url": "https://www.yelp.com/biz/fulton-halal-grill-brooklyn?adjust_creative=azSZ1YV457_fpKmHVQM9Bg&utm_campaign=yelp_api_v3&utm_medium=api_v3_business_search&utm_source=azSZ1YV457_fpKmHVQM9Bg", "review_count": 1, "categories": [{"alias": "halal", "title": "Halal"}], "rating": 1.0, "coordinates": {"latitude": 40.67799, "longitude": -73.90768}, "transactions": ["delivery", "pickup"], "location": {"address1": "2214 Fulton St", "address2": null, "address3": "", "city": "Brooklyn", "zip_code": "11233", "country": "US", "state": "NY", "display_address": ["2214 Fulton St", "Brooklyn, NY 11233"]}, "phone": "+13477891214", "display_phone": "(347) 789-1214", "distance": 4325.932626531364}, {"id": "7Wh9KRAcNhwkWDpPocCwng", "alias": "burger-king-brooklyn-38", "name": "Burger King", "image_url": "https://s3-media2.fl.yelpcdn.com/bphoto/VHxoeJBpwA7r7IFrkv0k7A/o.jpg", "is_closed": false, "url": "https://www.yelp.com/biz/burger-king-brooklyn-38?adjust_creative=azSZ1YV457_fpKmHVQM9Bg&utm_campaign=yelp_api_v3&utm_medium=api_v3_business_search&utm_source=azSZ1YV457_fpKmHVQM9Bg", "review_count": 9, "categories": [{"alias": "hotdogs", "title": "Fast Food"}, {"alias": "burgers", "title": "Burgers"}], "rating": 2.5, "coordinates": {"latitude": 40.65745784018979, "longitude": -73.9006452}, "transactions": ["delivery"], "price": "$", "location": {"address1": "1663 Linden Blvd", "address2": "", "address3": null, "city": "Brooklyn", "zip_code": "11212", "country": "US", "state": "NY", "display_address": ["1663 Linden Blvd", "Brooklyn, NY 11212"]}, "phone": "+13477894200", "display_phone": "(347) 789-4200", "distance": 1987.723680215072}, {"id": "7sZq-INj-fy0OehidW70Qw", "alias": "burger-king-brooklyn-47", "name": "Burger King", "image_url": "https://s3-media4.fl.yelpcdn.com/bphoto/aFbv9FSqqhPCtlR_AnVcvQ/o.jpg", "is_closed": false, "url": "https://www.yelp.com/biz/burger-king-brooklyn-47?adjust_creative=azSZ1YV457_fpKmHVQM9Bg&utm_campaign=yelp_api_v3&utm_medium=api_v3_business_search&utm_source=azSZ1YV457_fpKmHVQM9Bg", "review_count": 3, "categories": [{"alias": "burgers", "title": "Burgers"}, {"alias": "hotdogs", "title": "Fast Food"}], "rating": 2.0, "coordinates": {"latitude": 40.61683, "longitude": -73.94472}, "transactions": ["delivery"], "location": {"address1": "2773 Nostrand Ave", "address2": null, "address3": null, "city": "Brooklyn", "zip_code": "11210", "country": "US", "state": "NY", "display_address": ["2773 Nostrand Ave", "Brooklyn, NY 11210"]}, "phone": "+17183771064", "display_phone": "(718) 377-1064", "distance": 4611.387180359049}, {"id": "tmzuWsC_inWxJhH4nEWBig", "alias": "crown-fried-chicken-brooklyn-93", "name": "Crown Fried Chicken", "image_url": "https://s3-media3.fl.yelpcdn.com/bphoto/crtcC31oylTgRWTFY5vqmg/o.jpg", "is_closed": false, "url": "https://www.yelp.com/biz/crown-fried-chicken-brooklyn-93?adjust_creative=azSZ1YV457_fpKmHVQM9Bg&utm_campaign=yelp_api_v3&utm_medium=api_v3_business_search&utm_source=azSZ1YV457_fpKmHVQM9Bg", "review_count": 2, "categories": [{"alias": "chickenshop", "title": "Chicken Shop"}, {"alias": "burgers", "title": "Burgers"}, {"alias": "pizza", "title": "Pizza"}], "rating": 3.0, "coordinates": {"latitude": 40.65562, "longitude": -73.87301}, "transactions": ["delivery", "pickup"], "location": {"address1": "524 Vandalia Ave", "address2": "", "address3": null, "city": "Brooklyn", "zip_code": "11239", "country": "US", "state": "NY", "display_address": ["524 Vandalia Ave", "Brooklyn, NY 11239"]}, "phone": "", "display_phone": "", "distance": 2828.777415342154}, {"id": "6qx9qmfSte3wCUZ2Lqpmow", "alias": "the-gourmet-bagel-shoppe-brooklyn", "name": "The Gourmet Bagel Shoppe", "image_url": "https://s3-media2.fl.yelpcdn.com/bphoto/05SRm2jcosZM2BuxhW0C9A/o.jpg", "is_closed": false, "url": "https://www.yelp.com/biz/the-gourmet-bagel-shoppe-brooklyn?adjust_creative=azSZ1YV457_fpKmHVQM9Bg&utm_campaign=yelp_api_v3&utm_medium=api_v3_business_search&utm_source=azSZ1YV457_fpKmHVQM9Bg", "review_count": 39, "categories": [{"alias": "bagels", "title": "Bagels"}], "rating": 2.0, "coordinates": {"latitude": 40.615701994085306, "longitude": -73.9131271115583}, "transactions": ["delivery", "pickup"], "price": "$$", "location": {"address1": "6220 Avenue U", "address2": "", "address3": "", "city": "Brooklyn", "zip_code": "11234", "country": "US", "state": "NY", "display_address": ["6220 Avenue U", "Brooklyn, NY 11234"]}, "phone": "+17182099109", "display_phone": "(718) 209-9109", "distance": 2907.508204720516}, {"id": "MVeGGey8vBHK5o5-sRU-RQ", "alias": "outback-steakhouse-brooklyn-3", "name": "Outback Steakhouse", "image_url": "https://s3-media2.fl.yelpcdn.com/bphoto/okLbOCeRoPs3WPHLfESOFA/o.jpg", "is_closed": false, "url": "https://www.yelp.com/biz/outback-steakhouse-brooklyn-3?adjust_creative=azSZ1YV457_fpKmHVQM9Bg&utm_campaign=yelp_api_v3&utm_medium=api_v3_business_search&utm_source=azSZ1YV457_fpKmHVQM9Bg", "review_count": 374, "categories": [{"alias": "steak", "title": "Steakhouses"}], "rating": 3.0, "coordinates": {"latitude": 40.6497334121541, "longitude": -73.8719587056161}, "transactions": ["delivery", "pickup"], "price": "$$", "location": {"address1": "355 Gateway Dr", "address2": "", "address3": "", "city": "Brooklyn", "zip_code": "11239", "country": "US", "state": "NY", "display_address": ["355 Gateway Dr", "Brooklyn, NY 11239"]}, "phone": "+17182774275", "display_phone": "(718) 277-4275", "distance": 2558.3927543107106}, {"id": "Cx-obc_6ZIqr_d7uT7STfQ", "alias": "kennedy-fried-chicken-brooklyn-7", "name": "Kennedy Fried Chicken", "image_url": "https://s3-media2.fl.yelpcdn.com/bphoto/00PaCCO4036gekkY8-qfNg/o.jpg", "is_closed": false, "url": "https://www.yelp.com/biz/kennedy-fried-chicken-brooklyn-7?adjust_creative=azSZ1YV457_fpKmHVQM9Bg&utm_campaign=yelp_api_v3&utm_medium=api_v3_business_search&utm_source=azSZ1YV457_fpKmHVQM9Bg", "review_count": 10, "categories": [{"alias": "salad", "title": "Salad"}, {"alias": "chicken_wings", "title": "Chicken Wings"}, {"alias": "sandwiches", "title": "Sandwiches"}], "rating": 4.0, "coordinates": {"latitude": 40.6413688659668, "longitude": -73.9378051757812}, "transactions": ["delivery", "pickup"], "price": "$$", "location": {"address1": "4102 Avenue D", "address2": "", "address3": "", "city": "Brooklyn", "zip_code": "11203", "country": "US", "state": "NY", "display_address": ["4102 Avenue D", "Brooklyn, NY 11203"]}, "phone": "+17182870745", "display_phone": "(718) 287-0745", "distance": 3263.3174287352676}, {"id": "n_aRlaxM0Si-3SK-gkf88g", "alias": "brooklyn-wild-catch-brooklyn", "name": "Brooklyn Wild Catch", "image_url": "https://s3-media3.fl.yelpcdn.com/bphoto/csgwiBsud2iCrSNBdnMb0w/o.jpg", "is_closed": false, "url": "https://www.yelp.com/biz/brooklyn-wild-catch-brooklyn?adjust_creative=azSZ1YV457_fpKmHVQM9Bg&utm_campaign=yelp_api_v3&utm_medium=api_v3_business_search&utm_source=azSZ1YV457_fpKmHVQM9Bg", "review_count": 9, "categories": [{"alias": "seafood", "title": "Seafood"}, {"alias": "burgers", "title": "Burgers"}], "rating": 3.0, "coordinates": {"latitude": 40.64502, "longitude": -73.9492}, "transactions": ["delivery", "pickup"], "location": {"address1": "2920 Beverly Rd", "address2": null, "address3": "", "city": "Brooklyn", "zip_code": "11226", "country": "US", "state": "NY", "display_address": ["2920 Beverly Rd", "Brooklyn, NY 11226"]}, "phone": "+17186767150", "display_phone": "(718) 676-7150", "distance": 4262.873208178908}, {"id": "t8qu-eZMI7Y71QDIpOqBLA", "alias": "paphos-diner-brooklyn", "name": "Paphos Diner", "image_url": "https://s3-media2.fl.yelpcdn.com/bphoto/FCF8IHZ2ZcXcg5mnPNeDIQ/o.jpg", "is_closed": false, "url": "https://www.yelp.com/biz/paphos-diner-brooklyn?adjust_creative=azSZ1YV457_fpKmHVQM9Bg&utm_campaign=yelp_api_v3&utm_medium=api_v3_business_search&utm_source=azSZ1YV457_fpKmHVQM9Bg", "review_count": 90, "categories": [{"alias": "diners", "title": "Diners"}], "rating": 3.0, "coordinates": {"latitude": 40.677333, "longitude": -73.901071}, "transactions": ["delivery", "pickup"], "price": "$$", "location": {"address1": "2501 Fulton St", "address2": null, "address3": null, "city": "Brooklyn", "zip_code": "11207", "country": "US", "state": "NY", "display_address": ["2501 Fulton St", "Brooklyn, NY 11207"]}, "phone": "+17183462301", "display_phone": "(718) 346-2301", "distance": 4196.949259907269}, {"id": "kSBKmClG3yYevGPbiJ50BA", "alias": "immanuel-restaurant-brooklyn-2", "name": "Immanuel Restaurant", "image_url": "https://s3-media3.fl.yelpcdn.com/bphoto/MScVJmmRgQ2wjO4CoSi3IQ/o.jpg", "is_closed": false, "url": "https://www.yelp.com/biz/immanuel-restaurant-brooklyn-2?adjust_creative=azSZ1YV457_fpKmHVQM9Bg&utm_campaign=yelp_api_v3&utm_medium=api_v3_business_search&utm_source=azSZ1YV457_fpKmHVQM9Bg", "review_count": 2, "categories": [{"alias": "spanish", "title": "Spanish"}, {"alias": "soulfood", "title": "Soul Food"}], "rating": 3.5, "coordinates": {"latitude": 40.661414, "longitude": -73.879617}, "transactions": ["delivery", "pickup"], "location": {"address1": "799 Stanley Ave", "address2": null, "address3": null, "city": "Brooklyn", "zip_code": "11207", "country": "US", "state": "NY", "display_address": ["799 Stanley Ave", "Brooklyn, NY 11207"]}, "phone": "+17182724405", "display_phone": "(718) 272-4405", "distance": 2933.9421553520774}, {"id": "tL1M1d9PMOvI9rzdPMLbhA", "alias": "atlantic-deli-and-grill-brooklyn", "name": "Atlantic Deli & Grill", "image_url": "", "is_closed": false, "url": "https://www.yelp.com/biz/atlantic-deli-and-grill-brooklyn?adjust_creative=azSZ1YV457_fpKmHVQM9Bg&utm_campaign=yelp_api_v3&utm_medium=api_v3_business_search&utm_source=azSZ1YV457_fpKmHVQM9Bg", "review_count": 5, "categories": [{"alias": "delis", "title": "Delis"}, {"alias": "sandwiches", "title": "Sandwiches"}], "rating": 4.0, "coordinates": {"latitude": 40.676634, "longitude": -73.912874}, "transactions": ["delivery", "pickup"], "price": "$", "location": {"address1": "2053 Atlantic Ave", "address2": "", "address3": "", "city": "Brooklyn", "zip_code": "11233", "country": "US", "state": "NY", "display_address": ["2053 Atlantic Ave", "Brooklyn, NY 11233"]}, "phone": "+17183451666", "display_phone": "(718) 345-1666", "distance": 4274.952585309568}, {"id": "jgauiI85IvV_lMF-5UkEpA", "alias": "rite-aid-brooklyn-53", "name": "Rite Aid", "image_url": "https://s3-media4.fl.yelpcdn.com/bphoto/YCovr3m0AO-AYkwFtnbLag/o.jpg", "is_closed": false, "url": "https://www.yelp.com/biz/rite-aid-brooklyn-53?adjust_creative=azSZ1YV457_fpKmHVQM9Bg&utm_campaign=yelp_api_v3&utm_medium=api_v3_business_search&utm_source=azSZ1YV457_fpKmHVQM9Bg", "review_count": 5, "categories": [{"alias": "drugstores", "title": "Drugstores"}, {"alias": "convenience", "title": "Convenience Stores"}], "rating": 4.0, "coordinates": {"latitude": 40.6511262, "longitude": -73.9383679}, "transactions": ["delivery"], "price": "$$", "location": {"address1": "4102 Church Ave", "address2": "", "address3": "", "city": "Brooklyn", "zip_code": "11203", "country": "US", "state": "NY", "display_address": ["4102 Church Ave", "Brooklyn, NY 11203"]}, "phone": "+17189401579", "display_phone": "(718) 940-1579", "distance": 3544.350700527206}, {"id": "L3xyS7eqVpeeJLeH9XVfig", "alias": "crown-pizza-and-chicken-brooklyn", "name": "Crown Pizza & Chicken", "image_url": "https://s3-media1.fl.yelpcdn.com/bphoto/S35LJgGD2v1f2xKjRcfCmg/o.jpg", "is_closed": false, "url": "https://www.yelp.com/biz/crown-pizza-and-chicken-brooklyn?adjust_creative=azSZ1YV457_fpKmHVQM9Bg&utm_campaign=yelp_api_v3&utm_medium=api_v3_business_search&utm_source=azSZ1YV457_fpKmHVQM9Bg", "review_count": 5, "categories": [{"alias": "pizza", "title": "Pizza"}, {"alias": "sandwiches", "title": "Sandwiches"}], "rating": 3.0, "coordinates": {"latitude": 40.6779588013887, "longitude": -73.9108335971832}, "transactions": ["delivery", "pickup"], "location": {"address1": "152 Rockaway Ave", "address2": "", "address3": "", "city": "Brooklyn", "zip_code": "11233", "country": "US", "state": "NY", "display_address": ["152 Rockaway Ave", "Brooklyn, NY 11233"]}, "phone": "+17183460088", "display_phone": "(718) 346-0088", "distance": 4375.156675112383}, {"id": "YIWavvImqgmqN7P0LFdJlA", "alias": "linden-fried-chicken-brooklyn", "name": "Linden Fried Chicken", "image_url": "https://s3-media4.fl.yelpcdn.com/bphoto/IJDutAxV-FfsA8wCd_O1Hg/o.jpg", "is_closed": false, "url": "https://www.yelp.com/biz/linden-fried-chicken-brooklyn?adjust_creative=azSZ1YV457_fpKmHVQM9Bg&utm_campaign=yelp_api_v3&utm_medium=api_v3_business_search&utm_source=azSZ1YV457_fpKmHVQM9Bg", "review_count": 3, "categories": [{"alias": "tradamerican", "title": "American (Traditional)"}, {"alias": "chicken_wings", "title": "Chicken Wings"}], "rating": 3.0, "coordinates": {"latitude": 40.6683499, "longitude": -73.86853}, "transactions": ["delivery", "pickup"], "location": {"address1": "2596 Linden Blvd", "address2": "", "address3": "", "city": "Brooklyn", "zip_code": "11208", "country": "US", "state": "NY", "display_address": ["2596 Linden Blvd", "Brooklyn, NY 11208"]}, "phone": "+17182720315", "display_phone": "(718) 272-0315", "distance": 4094.7839301229587}, {"id": "QcyBUExiY0g7DweYoyb3jw", "alias": "mcdonalds-new-york-132", "name": "McDonald's", "image_url": "https://s3-media2.fl.yelpcdn.com/bphoto/5oBtsX0OXB7dtiLtwWpGgA/o.jpg", "is_closed": false, "url": "https://www.yelp.com/biz/mcdonalds-new-york-132?adjust_creative=azSZ1YV457_fpKmHVQM9Bg&utm_campaign=yelp_api_v3&utm_medium=api_v3_business_search&utm_source=azSZ1YV457_fpKmHVQM9Bg", "review_count": 8, "categories": [{"alias": "hotdogs", "title": "Fast Food"}, {"alias": "burgers", "title": "Burgers"}, {"alias": "coffee", "title": "Coffee & Tea"}], "rating": 2.0, "coordinates": {"latitude": 40.6446711039941, "longitude": -73.9216482639313}, "transactions": ["delivery"], "price": "$", "location": {"address1": "5804 Claredon Rd", "address2": "", "address3": "", "city": "New York", "zip_code": "11203", "country": "US", "state": "NY", "display_address": ["5804 Claredon Rd", "New York, NY 11203"]}, "phone": "+17184510834", "display_phone": "(718) 451-0834", "distance": 1976.2814098432862}, {"id": "P4jarOidkjkAf7GEabwo4g", "alias": "villa-castillo-restaurant-brooklyn", "name": "Villa Castillo Restaurant", "image_url": "https://s3-media1.fl.yelpcdn.com/bphoto/BDvhXPe3ujUCKNYNPnxbuw/o.jpg", "is_closed": false, "url": "https://www.yelp.com/biz/villa-castillo-restaurant-brooklyn?adjust_creative=azSZ1YV457_fpKmHVQM9Bg&utm_campaign=yelp_api_v3&utm_medium=api_v3_business_search&utm_source=azSZ1YV457_fpKmHVQM9Bg", "review_count": 23, "categories": [{"alias": "burgers", "title": "Burgers"}, {"alias": "tradamerican", "title": "American (Traditional)"}], "rating": 2.5, "coordinates": {"latitude": 40.668197, "longitude": -73.919334}, "transactions": ["delivery", "pickup"], "price": "$", "location": {"address1": "1474 Pitkin Ave", "address2": "", "address3": "", "city": "Brooklyn", "zip_code": "11212", "country": "US", "state": "NY", "display_address": ["1474 Pitkin Ave", "Brooklyn, NY 11212"]}, "phone": "+17184959717", "display_phone": "(718) 495-9717", "distance": 3608.1839563726185}, {"id": "QxKBEDXJv-zUELecTYRw6g", "alias": "mcdonalds-brooklyn-89", "name": "McDonald's", "image_url": "https://s3-media3.fl.yelpcdn.com/bphoto/GWB1OV_3qMdLaPX7ci7z-g/o.jpg", "is_closed": false, "url": "https://www.yelp.com/biz/mcdonalds-brooklyn-89?adjust_creative=azSZ1YV457_fpKmHVQM9Bg&utm_campaign=yelp_api_v3&utm_medium=api_v3_business_search&utm_source=azSZ1YV457_fpKmHVQM9Bg", "review_count": 26, "categories": [{"alias": "coffee", "title": "Coffee & Tea"}, {"alias": "burgers", "title": "Burgers"}, {"alias": "hotdogs", "title": "Fast Food"}], "rating": 2.5, "coordinates": {"latitude": 40.6578730944558, "longitude": -73.8896433001219}, "transactions": ["delivery"], "price": "$", "location": {"address1": "819 Pennsylvania Ave", "address2": "", "address3": "", "city": "Brooklyn", "zip_code": "11207", "country": "US", "state": "NY", "display_address": ["819 Pennsylvania Ave", "Brooklyn, NY 11207"]}, "phone": "+17182723362", "display_phone": "(718) 272-3362", "distance": 2184.135205531897}, {"id": "wVzUbIffBw0oJRZ-Eiz59Q", "alias": "nicks-lobster-house-brooklyn", "name": "Nick's Lobster House", "image_url": "https://s3-media2.fl.yelpcdn.com/bphoto/oP46KSfs-AVi5XEj1rYMLA/o.jpg", "is_closed": false, "url": "https://www.yelp.com/biz/nicks-lobster-house-brooklyn?adjust_creative=azSZ1YV457_fpKmHVQM9Bg&utm_campaign=yelp_api_v3&utm_medium=api_v3_business_search&utm_source=azSZ1YV457_fpKmHVQM9Bg", "review_count": 533, "categories": [{"alias": "seafood", "title": "Seafood"}], "rating": 3.5, "coordinates": {"latitude": 40.6035857241758, "longitude": -73.9152159388703}, "transactions": ["delivery", "pickup"], "price": "$$$", "location": {"address1": "2777 Flatbush Ave", "address2": "", "address3": "", "city": "Brooklyn", "zip_code": "11234", "country": "US", "state": "NY", "display_address": ["2777 Flatbush Ave", "Brooklyn, NY 11234"]}, "phone": "+17182537117", "display_phone": "(718) 253-7117", "distance": 4228.443279043715}, {"id": "KC6uGXN5z-5kqrlmvF2E0A", "alias": "burger-king-brooklyn-41", "name": "Burger King", "image_url": "https://s3-media1.fl.yelpcdn.com/bphoto/TJyw4vmXCAxNRrj6WeJarQ/o.jpg", "is_closed": false, "url": "https://www.yelp.com/biz/burger-king-brooklyn-41?adjust_creative=azSZ1YV457_fpKmHVQM9Bg&utm_campaign=yelp_api_v3&utm_medium=api_v3_business_search&utm_source=azSZ1YV457_fpKmHVQM9Bg", "review_count": 4, "categories": [{"alias": "burgers", "title": "Burgers"}, {"alias": "hotdogs", "title": "Fast Food"}], "rating": 2.0, "coordinates": {"latitude": 40.600905, "longitude": -73.934745}, "transactions": ["delivery"], "location": {"address1": "2228 Gerritsen Ave", "address2": null, "address3": null, "city": "Brooklyn", "zip_code": "11229", "country": "US", "state": "NY", "display_address": ["2228 Gerritsen Ave", "Brooklyn, NY 11229"]}, "phone": "+17186462939", "display_phone": "(718) 646-2939", "distance": 5247.6098107308035}, {"id": "zCsdiQvwDI0SVi8QQC6jFw", "alias": "burger-king-brooklyn-33", "name": "Burger King", "image_url": "https://s3-media3.fl.yelpcdn.com/bphoto/DKotpf_atw-jKLhHwj8hxw/o.jpg", "is_closed": false, "url": "https://www.yelp.com/biz/burger-king-brooklyn-33?adjust_creative=azSZ1YV457_fpKmHVQM9Bg&utm_campaign=yelp_api_v3&utm_medium=api_v3_business_search&utm_source=azSZ1YV457_fpKmHVQM9Bg", "review_count": 19, "categories": [{"alias": "burgers", "title": "Burgers"}, {"alias": "hotdogs", "title": "Fast Food"}], "rating": 1.0, "coordinates": {"latitude": 40.6527563434354, "longitude": -73.9195159077644}, "transactions": ["delivery", "pickup"], "price": "$", "location": {"address1": "9006 Church Ave", "address2": "", "address3": "", "city": "Brooklyn", "zip_code": "11236", "country": "US", "state": "NY", "display_address": ["9006 Church Ave", "Brooklyn, NY 11236"]}, "phone": "+17184985574", "display_phone": "(718) 498-5574", "distance": 2252.7666410285387}, {"id": "mhT5HqO0tXpCyW6-xxcSqA", "alias": "saniyahs-burgers-and-wraps-brooklyn", "name": "Saniyah's Burgers & Wraps", "image_url": "https://s3-media3.fl.yelpcdn.com/bphoto/gtiMH5iUUFNdKVeNqud9iw/o.jpg", "is_closed": false, "url": "https://www.yelp.com/biz/saniyahs-burgers-and-wraps-brooklyn?adjust_creative=azSZ1YV457_fpKmHVQM9Bg&utm_campaign=yelp_api_v3&utm_medium=api_v3_business_search&utm_source=azSZ1YV457_fpKmHVQM9Bg", "review_count": 1, "categories": [{"alias": "burgers", "title": "Burgers"}], "rating": 5.0, "coordinates": {"latitude": 40.6564331, "longitude": -73.9307098}, "transactions": ["delivery", "pickup"], "price": "$", "location": {"address1": "689 Utica Ave", "address2": "", "address3": "", "city": "Brooklyn", "zip_code": "11203", "country": "US", "state": "NY", "display_address": ["689 Utica Ave", "Brooklyn, NY 11203"]}, "phone": "+17186760635", "display_phone": "(718) 676-0635", "distance": 3249.0358786024854}, {"id": "mpbWOToI-OtEs6z7Jx8FAg", "alias": "caoba-coffee-shop-brooklyn", "name": "Caoba Coffee Shop", "image_url": "https://s3-media1.fl.yelpcdn.com/bphoto/H7ChdGreADTohPZ1uPjkXg/o.jpg", "is_closed": false, "url": "https://www.yelp.com/biz/caoba-coffee-shop-brooklyn?adjust_creative=azSZ1YV457_fpKmHVQM9Bg&utm_campaign=yelp_api_v3&utm_medium=api_v3_business_search&utm_source=azSZ1YV457_fpKmHVQM9Bg", "review_count": 10, "categories": [{"alias": "diners", "title": "Diners"}], "rating": 3.5, "coordinates": {"latitude": 40.6561, "longitude": -73.89772}, "transactions": ["delivery"], "location": {"address1": "762 Snediker Ave", "address2": "", "address3": "", "city": "Brooklyn", "zip_code": "11207", "country": "US", "state": "NY", "display_address": ["762 Snediker Ave", "Brooklyn, NY 11207"]}, "phone": "+17189222639", "display_phone": "(718) 922-2639", "distance": 1832.5849388015863}, {"id": "e7A69E8qCSD6f5GwaeJcoQ", "alias": "aliotta-pastry-shop-brooklyn", "name": "Aliotta Pastry Shop", "image_url": "https://s3-media2.fl.yelpcdn.com/bphoto/U8PiOfTDecACxj3_kTu2aA/o.jpg", "is_closed": false, "url": "https://www.yelp.com/biz/aliotta-pastry-shop-brooklyn?adjust_creative=azSZ1YV457_fpKmHVQM9Bg&utm_campaign=yelp_api_v3&utm_medium=api_v3_business_search&utm_source=azSZ1YV457_fpKmHVQM9Bg", "review_count": 120, "categories": [{"alias": "bakeries", "title": "Bakeries"}, {"alias": "desserts", "title": "Desserts"}, {"alias": "cakeshop", "title": "Patisserie/Cake Shop"}], "rating": 4.0, "coordinates": {"latitude": 40.61858, "longitude": -73.93096}, "transactions": ["delivery", "pickup"], "price": "$$", "location": {"address1": "4522 Ave N", "address2": null, "address3": "", "city": "Brooklyn", "zip_code": "11234", "country": "US", "state": "NY", "display_address": ["4522 Ave N", "Brooklyn, NY 11234"]}, "phone": "+17182524888", "display_phone": "(718) 252-4888", "distance": 3561.567102927541}, {"id": "qqo_2nbcZaVw66RyWW6oAA", "alias": "frank-s-tavern-brooklyn", "name": "Frank\u2019s Tavern", "image_url": "", "is_closed": false, "url": "https://www.yelp.com/biz/frank-s-tavern-brooklyn?adjust_creative=azSZ1YV457_fpKmHVQM9Bg&utm_campaign=yelp_api_v3&utm_medium=api_v3_business_search&utm_source=azSZ1YV457_fpKmHVQM9Bg", "review_count": 1, "categories": [{"alias": "bars", "title": "Bars"}], "rating": 3.0, "coordinates": {"latitude": 40.619397, "longitude": -73.921642}, "transactions": ["delivery"], "location": {"address1": "5511 Ave N", "address2": "", "address3": null, "city": "Brooklyn", "zip_code": "11234", "country": "US", "state": "NY", "display_address": ["5511 Ave N", "Brooklyn, NY 11234"]}, "phone": "+17182519760", "display_phone": "(718) 251-9760", "distance": 2939.995260801902}, {"id": "8WfatOyG52EeoplgjFoKSQ", "alias": "applebees-grill-bar-brooklyn-6", "name": "Applebee's Grill + Bar", "image_url": "https://s3-media4.fl.yelpcdn.com/bphoto/7S8ux1l5S1RZZUJHNJ-Vzg/o.jpg", "is_closed": false, "url": "https://www.yelp.com/biz/applebees-grill-bar-brooklyn-6?adjust_creative=azSZ1YV457_fpKmHVQM9Bg&utm_campaign=yelp_api_v3&utm_medium=api_v3_business_search&utm_source=azSZ1YV457_fpKmHVQM9Bg", "review_count": 189, "categories": [{"alias": "tradamerican", "title": "American (Traditional)"}, {"alias": "sportsbars", "title": "Sports Bars"}, {"alias": "burgers", "title": "Burgers"}], "rating": 2.0, "coordinates": {"latitude": 40.63133, "longitude": -73.947395}, "transactions": ["delivery", "pickup"], "price": "$$", "location": {"address1": "2201 Nostrand Ave", "address2": "", "address3": "", "city": "Brooklyn", "zip_code": "11210", "country": "US", "state": "NY", "display_address": ["2201 Nostrand Ave", "Brooklyn, NY 11210"]}, "phone": "+13475053300", "display_phone": "(347) 505-3300", "distance": 4170.451004871408}, {"id": "TUkZVI_WpwLtF7a9NWACFA", "alias": "brooklyn-pizzeria-brooklyn-3", "name": "Brooklyn Pizzeria", "image_url": "https://s3-media1.fl.yelpcdn.com/bphoto/lpt9iWlGMpDUFMXljeTh7Q/o.jpg", "is_closed": false, "url": "https://www.yelp.com/biz/brooklyn-pizzeria-brooklyn-3?adjust_creative=azSZ1YV457_fpKmHVQM9Bg&utm_campaign=yelp_api_v3&utm_medium=api_v3_business_search&utm_source=azSZ1YV457_fpKmHVQM9Bg", "review_count": 3, "categories": [{"alias": "pizza", "title": "Pizza"}], "rating": 1.5, "coordinates": {"latitude": 40.67087, "longitude": -73.93343}, "transactions": ["delivery", "pickup"], "location": {"address1": "1351 St Johns Pl", "address2": "", "address3": null, "city": "Brooklyn", "zip_code": "11213", "country": "US", "state": "NY", "display_address": ["1351 St Johns Pl", "Brooklyn, NY 11213"]}, "phone": "+17187745000", "display_phone": "(718) 774-5000", "distance": 4514.958628940211}, {"id": "55HTU5Bt1Gbz-p4ZdpuprQ", "alias": "moses-grill-bar-brooklyn", "name": "Moses Grill Bar", "image_url": "https://s3-media1.fl.yelpcdn.com/bphoto/BwRiyR42OPBwGUUZxvvi3g/o.jpg", "is_closed": false, "url": "https://www.yelp.com/biz/moses-grill-bar-brooklyn?adjust_creative=azSZ1YV457_fpKmHVQM9Bg&utm_campaign=yelp_api_v3&utm_medium=api_v3_business_search&utm_source=azSZ1YV457_fpKmHVQM9Bg", "review_count": 5, "categories": [{"alias": "burgers", "title": "Burgers"}, {"alias": "tradamerican", "title": "American (Traditional)"}, {"alias": "kosher", "title": "Kosher"}], "rating": 2.0, "coordinates": {"latitude": 40.62182, "longitude": -73.94576}, "transactions": [], "location": {"address1": "1022 Avenue P", "address2": "", "address3": null, "city": "Brooklyn", "zip_code": "11230", "country": "US", "state": "NY", "display_address": ["1022 Avenue P", "Brooklyn, NY 11230"]}, "phone": "+17187584785", "display_phone": "(718) 758-4785", "distance": 4399.813777887899}, {"id": "wyy0LgIivhLorE16WIG0fw", "alias": "oneidas-deli-and-grill-canarsie", "name": "Oneidas Deli and Grill", "image_url": "https://s3-media4.fl.yelpcdn.com/bphoto/OtEHf5RVGAwU9wwHY1xxCA/o.jpg", "is_closed": false, "url": "https://www.yelp.com/biz/oneidas-deli-and-grill-canarsie?adjust_creative=azSZ1YV457_fpKmHVQM9Bg&utm_campaign=yelp_api_v3&utm_medium=api_v3_business_search&utm_source=azSZ1YV457_fpKmHVQM9Bg", "review_count": 9, "categories": [{"alias": "newamerican", "title": "American (New)"}, {"alias": "delis", "title": "Delis"}], "rating": 2.0, "coordinates": {"latitude": 40.64878, "longitude": -73.90017}, "transactions": ["delivery", "pickup"], "location": {"address1": "604 E 102nd St", "address2": "", "address3": "", "city": "Canarsie", "zip_code": "11236", "country": "US", "state": "NY", "display_address": ["604 E 102nd St", "Canarsie, NY 11236"]}, "phone": "+13474629400", "display_phone": "(347) 462-9400", "distance": 1023.4706485508955}, {"id": "TOLmxRtDV0SMZXWGK0CWHA", "alias": "new-style-pappas-fried-chicken-and-ice-cream-brooklyn", "name": "New Style Pappa's Fried Chicken and Ice Cream", "image_url": "", "is_closed": false, "url": "https://www.yelp.com/biz/new-style-pappas-fried-chicken-and-ice-cream-brooklyn?adjust_creative=azSZ1YV457_fpKmHVQM9Bg&utm_campaign=yelp_api_v3&utm_medium=api_v3_business_search&utm_source=azSZ1YV457_fpKmHVQM9Bg", "review_count": 2, "categories": [{"alias": "burgers", "title": "Burgers"}, {"alias": "icecream", "title": "Ice Cream & Frozen Yogurt"}, {"alias": "chicken_wings", "title": "Chicken Wings"}], "rating": 1.0, "coordinates": {"latitude": 40.63421, "longitude": -73.91904}, "transactions": ["delivery", "pickup"], "location": {"address1": "5930 Glenwood Rd", "address2": "", "address3": "", "city": "Brooklyn", "zip_code": "11234", "country": "US", "state": "NY", "display_address": ["5930 Glenwood Rd", "Brooklyn, NY 11234"]}, "phone": "+17182097000", "display_phone": "(718) 209-7000", "distance": 1778.6483075912176}, {"id": "sNeMcpVEEG6zImVnvR1zWw", "alias": "la-flor-del-canairo-ii-brooklyn", "name": "La Flor Del Canairo II", "image_url": "https://s3-media2.fl.yelpcdn.com/bphoto/P0jL-gVzYDKVvsVwMX4Pww/o.jpg", "is_closed": false, "url": "https://www.yelp.com/biz/la-flor-del-canairo-ii-brooklyn?adjust_creative=azSZ1YV457_fpKmHVQM9Bg&utm_campaign=yelp_api_v3&utm_medium=api_v3_business_search&utm_source=azSZ1YV457_fpKmHVQM9Bg", "review_count": 6, "categories": [{"alias": "pizza", "title": "Pizza"}], "rating": 3.0, "coordinates": {"latitude": 40.67298, "longitude": -73.89023}, "transactions": ["delivery", "pickup"], "location": {"address1": "2225 Pitkin Ave", "address2": "", "address3": null, "city": "Brooklyn", "zip_code": "11207", "country": "US", "state": "NY", "display_address": ["2225 Pitkin Ave", "Brooklyn, NY 11207"]}, "phone": "+17184855000", "display_phone": "(718) 485-5000", "distance": 3778.346383273387}, {"id": "KQamwKjbvhJEFd8AlL4Rnw", "alias": "halal-fried-chicken-and-pizza-east-new-york", "name": "Halal Fried Chicken & Pizza", "image_url": "https://s3-media2.fl.yelpcdn.com/bphoto/xdl2-Uxyvij0StH4hsJR-g/o.jpg", "is_closed": false, "url": "https://www.yelp.com/biz/halal-fried-chicken-and-pizza-east-new-york?adjust_creative=azSZ1YV457_fpKmHVQM9Bg&utm_campaign=yelp_api_v3&utm_medium=api_v3_business_search&utm_source=azSZ1YV457_fpKmHVQM9Bg", "review_count": 4, "categories": [{"alias": "burgers", "title": "Burgers"}, {"alias": "pizza", "title": "Pizza"}], "rating": 3.5, "coordinates": {"latitude": 40.6743011, "longitude": -73.8961487}, "transactions": [], "price": "$", "location": {"address1": "141 Pennsylvania Ave", "address2": "", "address3": "", "city": "East New York", "zip_code": "11207", "country": "US", "state": "NY", "display_address": ["141 Pennsylvania Ave", "East New York, NY 11207"]}, "phone": "+13474046843", "display_phone": "(347) 404-6843", "distance": 3861.1796186586416}, {"id": "rhJ-wGsEx5l7a5_GNpMAqg", "alias": "burger-king-brooklyn-42", "name": "Burger King", "image_url": "https://s3-media2.fl.yelpcdn.com/bphoto/AEM0Y7fYXpbrc7j6NdkwvA/o.jpg", "is_closed": false, "url": "https://www.yelp.com/biz/burger-king-brooklyn-42?adjust_creative=azSZ1YV457_fpKmHVQM9Bg&utm_campaign=yelp_api_v3&utm_medium=api_v3_business_search&utm_source=azSZ1YV457_fpKmHVQM9Bg", "review_count": 2, "categories": [{"alias": "burgers", "title": "Burgers"}, {"alias": "hotdogs", "title": "Fast Food"}], "rating": 1.5, "coordinates": {"latitude": 40.6765126, "longitude": -73.8897554}, "transactions": ["delivery"], "location": {"address1": "2816 Atlantic Ave", "address2": null, "address3": null, "city": "Brooklyn", "zip_code": "11207", "country": "US", "state": "NY", "display_address": ["2816 Atlantic Ave", "Brooklyn, NY 11207"]}, "phone": "+17188272817", "display_phone": "(718) 827-2817", "distance": 4179.254322467257}, {"id": "Di3mIOqGx59KHxtWK18-kA", "alias": "mrbeast-burger-brooklyn-6", "name": "MrBeast Burger", "image_url": "https://s3-media3.fl.yelpcdn.com/bphoto/jv45D9WSyMYYnl__xXqMUA/o.jpg", "is_closed": false, "url": "https://www.yelp.com/biz/mrbeast-burger-brooklyn-6?adjust_creative=azSZ1YV457_fpKmHVQM9Bg&utm_campaign=yelp_api_v3&utm_medium=api_v3_business_search&utm_source=azSZ1YV457_fpKmHVQM9Bg", "review_count": 1, "categories": [{"alias": "fooddeliveryservices", "title": "Food Delivery Services"}, {"alias": "burgers", "title": "Burgers"}], "rating": 3.0, "coordinates": {"latitude": 40.67578, "longitude": -73.94201}, "transactions": ["delivery"], "location": {"address1": "1299 Bergen Street", "address2": null, "address3": null, "city": "Brooklyn", "zip_code": "11213", "country": "US", "state": "NY", "display_address": ["1299 Bergen Street", "Brooklyn, NY 11213"]}, "phone": "+18772327898", "display_phone": "(877) 232-7898", "distance": 5406.172981482157}, {"id": "i-ssN9j_LmixpSDZhzzoUA", "alias": "zee-bagels-brooklyn", "name": "Zee Bagels", "image_url": "https://s3-media3.fl.yelpcdn.com/bphoto/SpMpoMmOR6Vqor-jQ9ieJA/o.jpg", "is_closed": false, "url": "https://www.yelp.com/biz/zee-bagels-brooklyn?adjust_creative=azSZ1YV457_fpKmHVQM9Bg&utm_campaign=yelp_api_v3&utm_medium=api_v3_business_search&utm_source=azSZ1YV457_fpKmHVQM9Bg", "review_count": 92, "categories": [{"alias": "bagels", "title": "Bagels"}], "rating": 4.0, "coordinates": {"latitude": 40.60038, "longitude": -73.94357}, "transactions": ["delivery", "pickup"], "price": "$", "location": {"address1": "2803 Ave U", "address2": "", "address3": "", "city": "Brooklyn", "zip_code": "11229", "country": "US", "state": "NY", "display_address": ["2803 Ave U", "Brooklyn, NY 11229"]}, "phone": "+13475548700", "display_phone": "(347) 554-8700", "distance": 5751.061243909735}, {"id": "7O8RMiHmijSFFjB9FCBx2Q", "alias": "buckleys-restaurant-and-catering-brooklyn", "name": "Buckley's Restaurant and Catering", "image_url": "https://s3-media4.fl.yelpcdn.com/bphoto/drHkJumxTmh0bHX9acc6tQ/o.jpg", "is_closed": false, "url": "https://www.yelp.com/biz/buckleys-restaurant-and-catering-brooklyn?adjust_creative=azSZ1YV457_fpKmHVQM9Bg&utm_campaign=yelp_api_v3&utm_medium=api_v3_business_search&utm_source=azSZ1YV457_fpKmHVQM9Bg", "review_count": 150, "categories": [{"alias": "tradamerican", "title": "American (Traditional)"}, {"alias": "bars", "title": "Bars"}], "rating": 3.5, "coordinates": {"latitude": 40.60492, "longitude": -73.94308}, "transactions": ["delivery", "pickup"], "price": "$$", "location": {"address1": "2926 Ave S", "address2": "", "address3": "", "city": "Brooklyn", "zip_code": "11229", "country": "US", "state": "NY", "display_address": ["2926 Ave S", "Brooklyn, NY 11229"]}, "phone": "+17189984222", "display_phone": "(718) 998-4222", "distance": 5349.623733516367}, {"id": "vMeQAa-UFVdaedoXx2szTA", "alias": "crown-fried-chicken-and-pizza-brooklyn-9", "name": "Crown Fried Chicken & Pizza", "image_url": "https://s3-media1.fl.yelpcdn.com/bphoto/QMWa9142Ge0hJ_ChS2VkJA/o.jpg", "is_closed": false, "url": "https://www.yelp.com/biz/crown-fried-chicken-and-pizza-brooklyn-9?adjust_creative=azSZ1YV457_fpKmHVQM9Bg&utm_campaign=yelp_api_v3&utm_medium=api_v3_business_search&utm_source=azSZ1YV457_fpKmHVQM9Bg", "review_count": 2, "categories": [{"alias": "hotdogs", "title": "Fast Food"}, {"alias": "pizza", "title": "Pizza"}, {"alias": "burgers", "title": "Burgers"}], "rating": 1.0, "coordinates": {"latitude": 40.6754243477831, "longitude": -73.8656818474305}, "transactions": ["delivery", "pickup"], "location": {"address1": "640 S Conduit Blvd", "address2": "", "address3": "", "city": "Brooklyn", "zip_code": "11208", "country": "US", "state": "NY", "display_address": ["640 S Conduit Blvd", "Brooklyn, NY 11208"]}, "phone": "+17182336296", "display_phone": "(718) 233-6296", "distance": 4883.1248366050395}, {"id": "kF2Dkt_B2N8joBuBiH2l-A", "alias": "bigapple-cafe-brooklyn", "name": "BigApple Cafe", "image_url": "", "is_closed": false, "url": "https://www.yelp.com/biz/bigapple-cafe-brooklyn?adjust_creative=azSZ1YV457_fpKmHVQM9Bg&utm_campaign=yelp_api_v3&utm_medium=api_v3_business_search&utm_source=azSZ1YV457_fpKmHVQM9Bg", "review_count": 2, "categories": [{"alias": "cafes", "title": "Cafes"}, {"alias": "burgers", "title": "Burgers"}, {"alias": "sandwiches", "title": "Sandwiches"}], "rating": 4.5, "coordinates": {"latitude": 40.66916073741987, "longitude": -73.91560865941744}, "transactions": ["delivery", "pickup"], "location": {"address1": "1567 Pitkin Ave", "address2": null, "address3": null, "city": "Brooklyn", "zip_code": "11212", "country": "US", "state": "NY", "display_address": ["1567 Pitkin Ave", "Brooklyn, NY 11212"]}, "phone": "+17183429070", "display_phone": "(718) 342-9070", "distance": 3565.184441977796}, {"id": "I41hytB8G1fIJ6OmL6HFgw", "alias": "burger-king-brooklyn-4", "name": "Burger King", "image_url": "https://s3-media1.fl.yelpcdn.com/bphoto/RtVyEgayIRNhWjce5oPDcA/o.jpg", "is_closed": false, "url": "https://www.yelp.com/biz/burger-king-brooklyn-4?adjust_creative=azSZ1YV457_fpKmHVQM9Bg&utm_campaign=yelp_api_v3&utm_medium=api_v3_business_search&utm_source=azSZ1YV457_fpKmHVQM9Bg", "review_count": 12, "categories": [{"alias": "hotdogs", "title": "Fast Food"}, {"alias": "burgers", "title": "Burgers"}], "rating": 1.0, "coordinates": {"latitude": 40.675730616194784, "longitude": -73.86682188427002}, "transactions": ["delivery"], "price": "$", "location": {"address1": "624 S Conduit Blvd", "address2": "", "address3": "", "city": "Brooklyn", "zip_code": "11208", "country": "US", "state": "NY", "display_address": ["624 S Conduit Blvd", "Brooklyn, NY 11208"]}, "phone": "+17183489517", "display_phone": "(718) 348-9517", "distance": 4856.211668465683}, {"id": "i4Hm0UjAR4tUVhEYmNgeJQ", "alias": "crown-fried-chicken-brooklyn-56", "name": "Crown Fried Chicken", "image_url": "https://s3-media1.fl.yelpcdn.com/bphoto/U2hC1QQkzQRgh_-nAlYDLw/o.jpg", "is_closed": false, "url": "https://www.yelp.com/biz/crown-fried-chicken-brooklyn-56?adjust_creative=azSZ1YV457_fpKmHVQM9Bg&utm_campaign=yelp_api_v3&utm_medium=api_v3_business_search&utm_source=azSZ1YV457_fpKmHVQM9Bg", "review_count": 3, "categories": [{"alias": "salad", "title": "Salad"}, {"alias": "seafood", "title": "Seafood"}, {"alias": "burgers", "title": "Burgers"}], "rating": 2.5, "coordinates": {"latitude": 40.670086, "longitude": -73.909721}, "transactions": ["delivery", "pickup"], "location": {"address1": "1719 Pitkin Ave", "address2": null, "address3": "", "city": "Brooklyn", "zip_code": "11212", "country": "US", "state": "NY", "display_address": ["1719 Pitkin Ave", "Brooklyn, NY 11212"]}, "phone": "+13475848976", "display_phone": "(347) 584-8976", "distance": 3513.475333927675}, {"id": "tGPq5hkUTZ5IM662fFTT_g", "alias": "tonys-shop-and-save-supermarket-brooklyn", "name": "Tony's Shop & Save Supermarket", "image_url": "https://s3-media2.fl.yelpcdn.com/bphoto/giQAVWwtAAmWCx4iaBD0Cg/o.jpg", "is_closed": false, "url": "https://www.yelp.com/biz/tonys-shop-and-save-supermarket-brooklyn?adjust_creative=azSZ1YV457_fpKmHVQM9Bg&utm_campaign=yelp_api_v3&utm_medium=api_v3_business_search&utm_source=azSZ1YV457_fpKmHVQM9Bg", "review_count": 2, "categories": [{"alias": "grocery", "title": "Grocery"}, {"alias": "coffee", "title": "Coffee & Tea"}, {"alias": "delis", "title": "Delis"}], "rating": 1.5, "coordinates": {"latitude": 40.672538, "longitude": -73.875198}, "transactions": ["delivery", "pickup"], "price": "$", "location": {"address1": "1161 Sutter Ave", "address2": "", "address3": "", "city": "Brooklyn", "zip_code": "11208", "country": "US", "state": "NY", "display_address": ["1161 Sutter Ave", "Brooklyn, NY 11208"]}, "phone": "+17186474004", "display_phone": "(718) 647-4004", "distance": 4183.2063741154225}, {"id": "VJR4NsILUbqyW3MwHvomow", "alias": "mcdonalds-brooklyn-97", "name": "McDonald's", "image_url": "https://s3-media3.fl.yelpcdn.com/bphoto/GIbcirtJvCoq0gEtUmSvjg/o.jpg", "is_closed": false, "url": "https://www.yelp.com/biz/mcdonalds-brooklyn-97?adjust_creative=azSZ1YV457_fpKmHVQM9Bg&utm_campaign=yelp_api_v3&utm_medium=api_v3_business_search&utm_source=azSZ1YV457_fpKmHVQM9Bg", "review_count": 33, "categories": [{"alias": "coffee", "title": "Coffee & Tea"}, {"alias": "burgers", "title": "Burgers"}, {"alias": "hotdogs", "title": "Fast Food"}], "rating": 1.5, "coordinates": {"latitude": 40.6773144, "longitude": -73.922556}, "transactions": ["delivery"], "price": "$", "location": {"address1": "1883 Atlantic Ave", "address2": null, "address3": null, "city": "Brooklyn", "zip_code": "11207", "country": "US", "state": "NY", "display_address": ["1883 Atlantic Ave", "Brooklyn, NY 11207"]}, "phone": "+17189535864", "display_phone": "(718) 953-5864", "distance": 4632.043521830399}, {"id": "eEo3SmqjLZzm6vApdOoLPw", "alias": "loma-5-new-york", "name": "Loma # 5", "image_url": "https://s3-media4.fl.yelpcdn.com/bphoto/NnKg3fyPovqrrHwX1qOr0w/o.jpg", "is_closed": false, "url": "https://www.yelp.com/biz/loma-5-new-york?adjust_creative=azSZ1YV457_fpKmHVQM9Bg&utm_campaign=yelp_api_v3&utm_medium=api_v3_business_search&utm_source=azSZ1YV457_fpKmHVQM9Bg", "review_count": 21, "categories": [{"alias": "spanish", "title": "Spanish"}], "rating": 3.5, "coordinates": {"latitude": 40.6687698, "longitude": -73.9108124}, "transactions": ["delivery", "pickup"], "price": "$", "location": {"address1": "454 Rockaway Ave", "address2": "", "address3": "", "city": "New York", "zip_code": "11212", "country": "US", "state": "NY", "display_address": ["454 Rockaway Ave", "New York, NY 11212"]}, "phone": "+13474425775", "display_phone": "(347) 442-5775", "distance": 3382.2577221461725}, {"id": "Pe6MsH2DW0CXjvUtxUpI4A", "alias": "wilkens-fine-foods-brooklyn-2", "name": "Wilkens Fine Foods", "image_url": "https://s3-media1.fl.yelpcdn.com/bphoto/sTu1BgC3CpNG1kyxm7oezQ/o.jpg", "is_closed": false, "url": "https://www.yelp.com/biz/wilkens-fine-foods-brooklyn-2?adjust_creative=azSZ1YV457_fpKmHVQM9Bg&utm_campaign=yelp_api_v3&utm_medium=api_v3_business_search&utm_source=azSZ1YV457_fpKmHVQM9Bg", "review_count": 57, "categories": [{"alias": "delis", "title": "Delis"}], "rating": 3.0, "coordinates": {"latitude": 40.6199, "longitude": -73.90685}, "transactions": ["delivery", "pickup"], "price": "$$", "location": {"address1": "7114 Ave U", "address2": "", "address3": "", "city": "Brooklyn", "zip_code": "11234", "country": "US", "state": "NY", "display_address": ["7114 Ave U", "Brooklyn, NY 11234"]}, "phone": "+17184443838", "display_phone": "(718) 444-3838", "distance": 2283.578615243844}, {"id": "QlC_jOrJqxaTBe3sPDLoOA", "alias": "mcdonalds-brooklyn-5", "name": "McDonald's", "image_url": "https://s3-media3.fl.yelpcdn.com/bphoto/DPHMt_q5GfFpLJ_JFECbiA/o.jpg", "is_closed": false, "url": "https://www.yelp.com/biz/mcdonalds-brooklyn-5?adjust_creative=azSZ1YV457_fpKmHVQM9Bg&utm_campaign=yelp_api_v3&utm_medium=api_v3_business_search&utm_source=azSZ1YV457_fpKmHVQM9Bg", "review_count": 42, "categories": [{"alias": "hotdogs", "title": "Fast Food"}, {"alias": "burgers", "title": "Burgers"}, {"alias": "coffee", "title": "Coffee & Tea"}], "rating": 3.0, "coordinates": {"latitude": 40.615067399796, "longitude": -73.928944543004}, "transactions": ["delivery"], "price": "$", "location": {"address1": "2240 Flatbush Ave", "address2": "", "address3": "", "city": "Brooklyn", "zip_code": "11234", "country": "US", "state": "NY", "display_address": ["2240 Flatbush Ave", "Brooklyn, NY 11234"]}, "phone": "+17183771151", "display_phone": "(718) 377-1151", "distance": 3708.8053169800664}, {"id": "Anm1eBxXEZXpJJshQCxbRw", "alias": "mcdonalds-brooklyn-42", "name": "McDonald's", "image_url": "https://s3-media2.fl.yelpcdn.com/bphoto/n6wxGl0kLlyCkiqOZFIgmA/o.jpg", "is_closed": false, "url": "https://www.yelp.com/biz/mcdonalds-brooklyn-42?adjust_creative=azSZ1YV457_fpKmHVQM9Bg&utm_campaign=yelp_api_v3&utm_medium=api_v3_business_search&utm_source=azSZ1YV457_fpKmHVQM9Bg", "review_count": 20, "categories": [{"alias": "burgers", "title": "Burgers"}, {"alias": "hotdogs", "title": "Fast Food"}, {"alias": "coffee", "title": "Coffee & Tea"}], "rating": 1.5, "coordinates": {"latitude": 40.669163, "longitude": -73.930779}, "transactions": ["delivery"], "price": "$", "location": {"address1": "1133 Eastern Pkwy", "address2": "", "address3": "", "city": "Brooklyn", "zip_code": "11213", "country": "US", "state": "NY", "display_address": ["1133 Eastern Pkwy", "Brooklyn, NY 11213"]}, "phone": "+17184930800", "display_phone": "(718) 493-0800", "distance": 4230.171393563438}, {"id": "FuqtTauFeIroUiSEjE43hg", "alias": "kansas-chicken-and-burger-brooklyn", "name": "Kansas Chicken & Burger", "image_url": "https://s3-media4.fl.yelpcdn.com/bphoto/7KfsoVuEpf87oreKJ5RqnQ/o.jpg", "is_closed": false, "url": "https://www.yelp.com/biz/kansas-chicken-and-burger-brooklyn?adjust_creative=azSZ1YV457_fpKmHVQM9Bg&utm_campaign=yelp_api_v3&utm_medium=api_v3_business_search&utm_source=azSZ1YV457_fpKmHVQM9Bg", "review_count": 1, "categories": [{"alias": "burgers", "title": "Burgers"}, {"alias": "sandwiches", "title": "Sandwiches"}, {"alias": "chicken_wings", "title": "Chicken Wings"}], "rating": 2.0, "coordinates": {"latitude": 40.66429, "longitude": -73.92369}, "transactions": ["delivery", "pickup"], "location": {"address1": "1090 Rutland Rd", "address2": "", "address3": null, "city": "Brooklyn", "zip_code": "11212", "country": "US", "state": "NY", "display_address": ["1090 Rutland Rd", "Brooklyn, NY 11212"]}, "phone": "+17184843313", "display_phone": "(718) 484-3313", "distance": 3429.435638224755}, {"id": "expqIR9abzV3sPLT9etBWg", "alias": "stanley-coffee-shop-east-new-york", "name": "Stanley Coffee Shop", "image_url": "https://s3-media3.fl.yelpcdn.com/bphoto/9ZUR3XHU4noI94iLqlqQYA/o.jpg", "is_closed": false, "url": "https://www.yelp.com/biz/stanley-coffee-shop-east-new-york?adjust_creative=azSZ1YV457_fpKmHVQM9Bg&utm_campaign=yelp_api_v3&utm_medium=api_v3_business_search&utm_source=azSZ1YV457_fpKmHVQM9Bg", "review_count": 12, "categories": [{"alias": "dominican", "title": "Dominican"}], "rating": 3.0, "coordinates": {"latitude": 40.659516, "longitude": -73.8839969}, "transactions": ["delivery", "pickup"], "price": "$$", "location": {"address1": "675 Stanley Ave", "address2": "", "address3": "", "city": "East New York", "zip_code": "11207", "country": "US", "state": "NY", "display_address": ["675 Stanley Ave", "East New York, NY 11207"]}, "phone": "+17186496228", "display_phone": "(718) 649-6228", "distance": 2557.3407951135837}, {"id": "FMVGgUM9OKTJR2Z3lImlAg", "alias": "bagel-bob-brooklyn", "name": "Bagel Bob", "image_url": "https://s3-media3.fl.yelpcdn.com/bphoto/iQAFcrXcnrmhuBAKD8zSoA/o.jpg", "is_closed": false, "url": "https://www.yelp.com/biz/bagel-bob-brooklyn?adjust_creative=azSZ1YV457_fpKmHVQM9Bg&utm_campaign=yelp_api_v3&utm_medium=api_v3_business_search&utm_source=azSZ1YV457_fpKmHVQM9Bg", "review_count": 25, "categories": [{"alias": "bagels", "title": "Bagels"}], "rating": 2.0, "coordinates": {"latitude": 40.61823, "longitude": -73.93252}, "transactions": ["delivery", "pickup"], "price": "$$", "location": {"address1": "2114 Flatbush Ave", "address2": null, "address3": null, "city": "Brooklyn", "zip_code": "11234", "country": "US", "state": "NY", "display_address": ["2114 Flatbush Ave", "Brooklyn, NY 11234"]}, "phone": "+17182524800", "display_phone": "(718) 252-4800", "distance": 3678.8257002711143}, {"id": "d962G33wwJpmyh8IWQxm3A", "alias": "wendys-brooklyn-9", "name": "Wendy's", "image_url": "https://s3-media3.fl.yelpcdn.com/bphoto/L6X21pH-8SwYcR4JGO_Qzw/o.jpg", "is_closed": false, "url": "https://www.yelp.com/biz/wendys-brooklyn-9?adjust_creative=azSZ1YV457_fpKmHVQM9Bg&utm_campaign=yelp_api_v3&utm_medium=api_v3_business_search&utm_source=azSZ1YV457_fpKmHVQM9Bg", "review_count": 33, "categories": [{"alias": "hotdogs", "title": "Fast Food"}, {"alias": "burgers", "title": "Burgers"}], "rating": 2.0, "coordinates": {"latitude": 40.633614, "longitude": -73.928146}, "transactions": ["delivery"], "price": "$", "location": {"address1": "1601 Utica Ave.", "address2": "", "address3": "", "city": "Brooklyn", "zip_code": "11234", "country": "US", "state": "NY", "display_address": ["1601 Utica Ave.", "Brooklyn, NY 11234"]}, "phone": "+13477025971", "display_phone": "(347) 702-5971", "distance": 2530.886580098533}, {"id": "Dp7BPVpvjb1mHYjCdKOB1g", "alias": "1840deli-grocery-brooklyn", "name": "1840Deli Grocery", "image_url": "", "is_closed": false, "url": "https://www.yelp.com/biz/1840deli-grocery-brooklyn?adjust_creative=azSZ1YV457_fpKmHVQM9Bg&utm_campaign=yelp_api_v3&utm_medium=api_v3_business_search&utm_source=azSZ1YV457_fpKmHVQM9Bg", "review_count": 1, "categories": [{"alias": "delis", "title": "Delis"}, {"alias": "sandwiches", "title": "Sandwiches"}], "rating": 3.0, "coordinates": {"latitude": 40.640794, "longitude": -73.948815}, "transactions": ["delivery", "pickup"], "location": {"address1": "1840 Nostrand Ave", "address2": null, "address3": null, "city": "Brooklyn", "zip_code": "11226", "country": "US", "state": "NY", "display_address": ["1840 Nostrand Ave", "Brooklyn, NY 11226"]}, "phone": "+17184839576", "display_phone": "(718) 483-9576", "distance": 4188.302221351324}, {"id": "vnPHpAn6iQyucBMK1jIisw", "alias": "nachos-mexican-cusine-brooklyn", "name": "Nacho's Mexican Cusine", "image_url": "https://s3-media4.fl.yelpcdn.com/bphoto/7xsQJKfAqDk-e4XV62guUQ/o.jpg", "is_closed": false, "url": "https://www.yelp.com/biz/nachos-mexican-cusine-brooklyn?adjust_creative=azSZ1YV457_fpKmHVQM9Bg&utm_campaign=yelp_api_v3&utm_medium=api_v3_business_search&utm_source=azSZ1YV457_fpKmHVQM9Bg", "review_count": 4, "categories": [{"alias": "mexican", "title": "Mexican"}, {"alias": "breakfast_brunch", "title": "Breakfast & Brunch"}, {"alias": "sandwiches", "title": "Sandwiches"}], "rating": 3.0, "coordinates": {"latitude": 40.675968170166, "longitude": -73.8976287841797}, "transactions": ["delivery", "pickup"], "location": {"address1": "2623 Atlantic Ave", "address2": "", "address3": null, "city": "Brooklyn", "zip_code": "11207", "country": "US", "state": "NY", "display_address": ["2623 Atlantic Ave", "Brooklyn, NY 11207"]}, "phone": "+19179668200", "display_phone": "(917) 966-8200", "distance": 4041.2123464626015}, {"id": "prBqvaxxoSN043-vTCG5Rw", "alias": "j-and-d-pizzeria-restaurant-brooklyn", "name": "J&D Pizzeria Restaurant", "image_url": "https://s3-media2.fl.yelpcdn.com/bphoto/jad362A8ZCqM_dcsliCE_Q/o.jpg", "is_closed": false, "url": "https://www.yelp.com/biz/j-and-d-pizzeria-restaurant-brooklyn?adjust_creative=azSZ1YV457_fpKmHVQM9Bg&utm_campaign=yelp_api_v3&utm_medium=api_v3_business_search&utm_source=azSZ1YV457_fpKmHVQM9Bg", "review_count": 2, "categories": [{"alias": "salad", "title": "Salad"}, {"alias": "pizza", "title": "Pizza"}, {"alias": "burgers", "title": "Burgers"}], "rating": 1.5, "coordinates": {"latitude": 40.6742134094238, "longitude": -73.878776550293}, "transactions": ["delivery", "pickup"], "location": {"address1": "2530 Pitkin Ave", "address2": "", "address3": null, "city": "Brooklyn", "zip_code": "11208", "country": "US", "state": "NY", "display_address": ["2530 Pitkin Ave", "Brooklyn, NY 11208"]}, "phone": "+13473654103", "display_phone": "(347) 365-4103", "distance": 4214.898854763766}, {"id": "oSIRyn5eqORHu1OMEe2Mmw", "alias": "marab-deli-and-grocery-brooklyn", "name": "Marab Deli & Grocery", "image_url": "https://s3-media3.fl.yelpcdn.com/bphoto/8-e7nCJ7u217F9yYpykUFA/o.jpg", "is_closed": false, "url": "https://www.yelp.com/biz/marab-deli-and-grocery-brooklyn?adjust_creative=azSZ1YV457_fpKmHVQM9Bg&utm_campaign=yelp_api_v3&utm_medium=api_v3_business_search&utm_source=azSZ1YV457_fpKmHVQM9Bg", "review_count": 6, "categories": [{"alias": "grocery", "title": "Grocery"}, {"alias": "delis", "title": "Delis"}], "rating": 3.0, "coordinates": {"latitude": 40.6557963788509, "longitude": -73.9427760243416}, "transactions": ["delivery", "pickup"], "price": "$", "location": {"address1": "502 Clarkson Ave", "address2": "", "address3": "", "city": "Brooklyn", "zip_code": "11203", "country": "US", "state": "NY", "display_address": ["502 Clarkson Ave", "Brooklyn, NY 11203"]}, "phone": "", "display_phone": "", "distance": 4091.6636161545102}, {"id": "XUNlDbv02jjJwu0tDj-DPg", "alias": "kansas-chicken-and-burger-brooklyn-2", "name": "Kansas Chicken & Burger", "image_url": "https://s3-media1.fl.yelpcdn.com/bphoto/nHS3j7tLGE5cBdL6XUk6EQ/o.jpg", "is_closed": false, "url": "https://www.yelp.com/biz/kansas-chicken-and-burger-brooklyn-2?adjust_creative=azSZ1YV457_fpKmHVQM9Bg&utm_campaign=yelp_api_v3&utm_medium=api_v3_business_search&utm_source=azSZ1YV457_fpKmHVQM9Bg", "review_count": 1, "categories": [{"alias": "tradamerican", "title": "American (Traditional)"}, {"alias": "chicken_wings", "title": "Chicken Wings"}], "rating": 1.0, "coordinates": {"latitude": 40.66959, "longitude": -73.93368}, "transactions": ["delivery", "pickup"], "location": {"address1": "263 Schenectady Ave", "address2": "", "address3": null, "city": "Brooklyn", "zip_code": "11213", "country": "US", "state": "NY", "display_address": ["263 Schenectady Ave", "Brooklyn, NY 11213"]}, "phone": "+17183631901", "display_phone": "(718) 363-1901", "distance": 4415.50888526746}, {"id": "mBvG0cQTUw_H7gGKFzR6Aw", "alias": "rite-aid-brooklyn-57", "name": "Rite Aid", "image_url": "https://s3-media3.fl.yelpcdn.com/bphoto/jMGLaJK6E99UIL8LF2mgiw/o.jpg", "is_closed": false, "url": "https://www.yelp.com/biz/rite-aid-brooklyn-57?adjust_creative=azSZ1YV457_fpKmHVQM9Bg&utm_campaign=yelp_api_v3&utm_medium=api_v3_business_search&utm_source=azSZ1YV457_fpKmHVQM9Bg", "review_count": 8, "categories": [{"alias": "drugstores", "title": "Drugstores"}, {"alias": "convenience", "title": "Convenience Stores"}], "rating": 2.0, "coordinates": {"latitude": 40.660715, "longitude": -73.920299}, "transactions": ["delivery"], "price": "$$", "location": {"address1": "1154 Clarkson Ave", "address2": "", "address3": "", "city": "Brooklyn", "zip_code": "11212", "country": "US", "state": "NY", "display_address": ["1154 Clarkson Ave", "Brooklyn, NY 11212"]}, "phone": "+17183456355", "display_phone": "(718) 345-6355", "distance": 2945.3029419383597}, {"id": "IkKm0hBSggveI64_1-TbEw", "alias": "burger-mansion-kings", "name": "Burger Mansion", "image_url": "", "is_closed": false, "url": "https://www.yelp.com/biz/burger-mansion-kings?adjust_creative=azSZ1YV457_fpKmHVQM9Bg&utm_campaign=yelp_api_v3&utm_medium=api_v3_business_search&utm_source=azSZ1YV457_fpKmHVQM9Bg", "review_count": 1, "categories": [{"alias": "burgers", "title": "Burgers"}, {"alias": "fooddeliveryservices", "title": "Food Delivery Services"}], "rating": 1.0, "coordinates": {"latitude": 40.67170333862305, "longitude": -73.9354019165039}, "transactions": ["delivery"], "location": {"address1": "", "address2": null, "address3": null, "city": "Kings", "zip_code": "11213", "country": "US", "state": "NY", "display_address": ["Kings, NY 11213"]}, "phone": "", "display_phone": "", "distance": 4936.587226801081}, {"id": "B3H-lC7ix-ajZq0o303s-w", "alias": "raspberry-deli-brooklyn", "name": "Raspberry Deli", "image_url": "", "is_closed": false, "url": "https://www.yelp.com/biz/raspberry-deli-brooklyn?adjust_creative=azSZ1YV457_fpKmHVQM9Bg&utm_campaign=yelp_api_v3&utm_medium=api_v3_business_search&utm_source=azSZ1YV457_fpKmHVQM9Bg", "review_count": 2, "categories": [{"alias": "grocery", "title": "Grocery"}, {"alias": "delis", "title": "Delis"}], "rating": 1.0, "coordinates": {"latitude": 40.66792, "longitude": -73.86071}, "transactions": ["delivery", "pickup"], "location": {"address1": "1368 Loring Ave", "address2": null, "address3": null, "city": "Brooklyn", "zip_code": "11208", "country": "US", "state": "NY", "display_address": ["1368 Loring Ave", "Brooklyn, NY 11208"]}, "phone": "+17186476600", "display_phone": "(718) 647-6600", "distance": 4507.955946030448}, {"id": "5lCu-WHXCJXHlGC2aMi9lQ", "alias": "mcdonalds-brooklyn-99", "name": "McDonald's", "image_url": "https://s3-media1.fl.yelpcdn.com/bphoto/Wkih4Slgaut6DIQxT_tORg/o.jpg", "is_closed": false, "url": "https://www.yelp.com/biz/mcdonalds-brooklyn-99?adjust_creative=azSZ1YV457_fpKmHVQM9Bg&utm_campaign=yelp_api_v3&utm_medium=api_v3_business_search&utm_source=azSZ1YV457_fpKmHVQM9Bg", "review_count": 13, "categories": [{"alias": "hotdogs", "title": "Fast Food"}, {"alias": "burgers", "title": "Burgers"}, {"alias": "coffee", "title": "Coffee & Tea"}], "rating": 2.5, "coordinates": {"latitude": 40.65613836369, "longitude": -73.9305764271512}, "transactions": ["delivery"], "price": "$", "location": {"address1": "701 Utica Ave", "address2": null, "address3": null, "city": "Brooklyn", "zip_code": "11203", "country": "US", "state": "NY", "display_address": ["701 Utica Ave", "Brooklyn, NY 11203"]}, "phone": "+17187780023", "display_phone": "(718) 778-0023", "distance": 3222.7085778567052}, {"id": "UJ6eovIVusAd1B2SVaE_Yw", "alias": "burger-king-brooklyn-50", "name": "Burger King", "image_url": "https://s3-media1.fl.yelpcdn.com/bphoto/T67LyDmxzE6QbnDh2LYzWg/o.jpg", "is_closed": false, "url": "https://www.yelp.com/biz/burger-king-brooklyn-50?adjust_creative=azSZ1YV457_fpKmHVQM9Bg&utm_campaign=yelp_api_v3&utm_medium=api_v3_business_search&utm_source=azSZ1YV457_fpKmHVQM9Bg", "review_count": 16, "categories": [{"alias": "hotdogs", "title": "Fast Food"}, {"alias": "burgers", "title": "Burgers"}], "rating": 2.0, "coordinates": {"latitude": 40.6138824, "longitude": -73.9260658621788}, "transactions": ["delivery"], "price": "$", "location": {"address1": "23-43 Utica Ave", "address2": "", "address3": "", "city": "Brooklyn", "zip_code": "11234", "country": "US", "state": "NY", "display_address": ["23-43 Utica Ave", "Brooklyn, NY 11234"]}, "phone": "+17183779358", "display_phone": "(718) 377-9358", "distance": 3651.1787447752213}, {"id": "-7kTNrGr7romVNcNjIGVsg", "alias": "mcdonalds-brooklyn-71", "name": "McDonald's", "image_url": "https://s3-media1.fl.yelpcdn.com/bphoto/-6jnT04fvcecCLs27l10VA/o.jpg", "is_closed": false, "url": "https://www.yelp.com/biz/mcdonalds-brooklyn-71?adjust_creative=azSZ1YV457_fpKmHVQM9Bg&utm_campaign=yelp_api_v3&utm_medium=api_v3_business_search&utm_source=azSZ1YV457_fpKmHVQM9Bg", "review_count": 13, "categories": [{"alias": "hotdogs", "title": "Fast Food"}, {"alias": "burgers", "title": "Burgers"}, {"alias": "coffee", "title": "Coffee & Tea"}], "rating": 2.5, "coordinates": {"latitude": 40.610424, "longitude": -73.9188188}, "transactions": ["delivery"], "price": "$", "location": {"address1": "5407 Kings Plz", "address2": "", "address3": "", "city": "Brooklyn", "zip_code": "11234", "country": "US", "state": "NY", "display_address": ["5407 Kings Plz", "Brooklyn, NY 11234"]}, "phone": "+17182525460", "display_phone": "(718) 252-5460", "distance": 3644.149973474769}, {"id": "OS27j6CbRx7Cq6Fg8mS-KA", "alias": "kennedy-fried-chicken-new-york-13", "name": "Kennedy Fried Chicken", "image_url": "https://s3-media3.fl.yelpcdn.com/bphoto/KpD6dhEdO9BU0e4rsvIedg/o.jpg", "is_closed": false, "url": "https://www.yelp.com/biz/kennedy-fried-chicken-new-york-13?adjust_creative=azSZ1YV457_fpKmHVQM9Bg&utm_campaign=yelp_api_v3&utm_medium=api_v3_business_search&utm_source=azSZ1YV457_fpKmHVQM9Bg", "review_count": 15, "categories": [{"alias": "tradamerican", "title": "American (Traditional)"}], "rating": 3.0, "coordinates": {"latitude": 40.6779670715332, "longitude": -73.8917770385742}, "transactions": ["delivery", "pickup"], "price": "$", "location": {"address1": "2788 Fulton St", "address2": "", "address3": "", "city": "New York", "zip_code": "11207", "country": "US", "state": "NY", "display_address": ["2788 Fulton St", "New York, NY 11207"]}, "phone": "+17182351283", "display_phone": "(718) 235-1283", "distance": 4310.098427748997}, {"id": "cJ96sEMvYFCRokl_LZO8oA", "alias": "crown-fried-chicken-and-pizza-brooklyn-2", "name": "Crown Fried Chicken & Pizza", "image_url": "https://s3-media2.fl.yelpcdn.com/bphoto/UEMPLHKjn38kkidAKOuWbw/o.jpg", "is_closed": false, "url": "https://www.yelp.com/biz/crown-fried-chicken-and-pizza-brooklyn-2?adjust_creative=azSZ1YV457_fpKmHVQM9Bg&utm_campaign=yelp_api_v3&utm_medium=api_v3_business_search&utm_source=azSZ1YV457_fpKmHVQM9Bg", "review_count": 4, "categories": [{"alias": "italian", "title": "Italian"}, {"alias": "chicken_wings", "title": "Chicken Wings"}, {"alias": "pizza", "title": "Pizza"}], "rating": 2.0, "coordinates": {"latitude": 40.67104, "longitude": -73.93121}, "transactions": ["delivery", "pickup"], "location": {"address1": "226 Utica Ave", "address2": null, "address3": null, "city": "Brooklyn", "zip_code": "11213", "country": "US", "state": "NY", "display_address": ["226 Utica Ave", "Brooklyn, NY 11213"]}, "phone": "+17182216897", "display_phone": "(718) 221-6897", "distance": 4414.90384550322}, {"id": "yYPLWUVhJOpMhjTlSrNV8w", "alias": "rite-aid-brooklyn-68", "name": "Rite Aid", "image_url": "https://s3-media4.fl.yelpcdn.com/bphoto/nyOi77mE1cS7M92OeSAfKg/o.jpg", "is_closed": false, "url": "https://www.yelp.com/biz/rite-aid-brooklyn-68?adjust_creative=azSZ1YV457_fpKmHVQM9Bg&utm_campaign=yelp_api_v3&utm_medium=api_v3_business_search&utm_source=azSZ1YV457_fpKmHVQM9Bg", "review_count": 8, "categories": [{"alias": "drugstores", "title": "Drugstores"}, {"alias": "convenience", "title": "Convenience Stores"}], "rating": 2.5, "coordinates": {"latitude": 40.669544, "longitude": -73.912806}, "transactions": ["delivery"], "price": "$$", "location": {"address1": "1631-43 Pitkin Ave", "address2": "", "address3": "", "city": "Brooklyn", "zip_code": "11212", "country": "US", "state": "NY", "display_address": ["1631-43 Pitkin Ave", "Brooklyn, NY 11212"]}, "phone": "+17184989530", "display_phone": "(718) 498-9530", "distance": 3520.4323696930023}, {"id": "NLM3hJttpFnXo8EPLbryoA", "alias": "prince-deli-iii-brooklyn-ny", "name": "Prince Deli III", "image_url": "https://s3-media2.fl.yelpcdn.com/bphoto/ofaBOMHRQEFNAqRFZMDWJg/o.jpg", "is_closed": false, "url": "https://www.yelp.com/biz/prince-deli-iii-brooklyn-ny?adjust_creative=azSZ1YV457_fpKmHVQM9Bg&utm_campaign=yelp_api_v3&utm_medium=api_v3_business_search&utm_source=azSZ1YV457_fpKmHVQM9Bg", "review_count": 3, "categories": [{"alias": "convenience", "title": "Convenience Stores"}, {"alias": "delis", "title": "Delis"}], "rating": 2.5, "coordinates": {"latitude": 40.6487923, "longitude": -73.949548}, "transactions": ["delivery", "pickup"], "location": {"address1": "1528 Nostrand Ave", "address2": "", "address3": "", "city": "Brooklyn Ny", "zip_code": "11226", "country": "US", "state": "NY", "display_address": ["1528 Nostrand Ave", "Brooklyn Ny, NY 11226"]}, "phone": "+13474350125", "display_phone": "(347) 435-0125", "distance": 4369.342194444926}, {"id": "v2dncY3IbKvIxw4tDpidCw", "alias": "isaacs-coffee-shop-brooklyn", "name": "Isaac's Coffee Shop", "image_url": "https://s3-media1.fl.yelpcdn.com/bphoto/c6BdWq2cRIoo5vHhncV_kw/o.jpg", "is_closed": false, "url": "https://www.yelp.com/biz/isaacs-coffee-shop-brooklyn?adjust_creative=azSZ1YV457_fpKmHVQM9Bg&utm_campaign=yelp_api_v3&utm_medium=api_v3_business_search&utm_source=azSZ1YV457_fpKmHVQM9Bg", "review_count": 6, "categories": [{"alias": "coffee", "title": "Coffee & Tea"}], "rating": 3.0, "coordinates": {"latitude": 40.624649, "longitude": -73.946289}, "transactions": ["delivery"], "price": "$$", "location": {"address1": "3001 Ave K", "address2": "", "address3": "", "city": "Brooklyn", "zip_code": "11210", "country": "US", "state": "NY", "display_address": ["3001 Ave K", "Brooklyn, NY 11210"]}, "phone": "+17183779595", "display_phone": "(718) 377-9595", "distance": 4309.211737403139}, {"id": "bc-rQbABtZzTEnHd5qsMAQ", "alias": "mcdonalds-brooklyn-33", "name": "McDonald's", "image_url": "https://s3-media3.fl.yelpcdn.com/bphoto/Yz90lNHRz8mWJwLK9UXArQ/o.jpg", "is_closed": false, "url": "https://www.yelp.com/biz/mcdonalds-brooklyn-33?adjust_creative=azSZ1YV457_fpKmHVQM9Bg&utm_campaign=yelp_api_v3&utm_medium=api_v3_business_search&utm_source=azSZ1YV457_fpKmHVQM9Bg", "review_count": 21, "categories": [{"alias": "burgers", "title": "Burgers"}, {"alias": "hotdogs", "title": "Fast Food"}, {"alias": "coffee", "title": "Coffee & Tea"}], "rating": 1.5, "coordinates": {"latitude": 40.6321180349052, "longitude": -73.9286380214708}, "transactions": ["delivery"], "price": "$", "location": {"address1": "1656 Utica Ave", "address2": "", "address3": "", "city": "Brooklyn", "zip_code": "11234", "country": "US", "state": "NY", "display_address": ["1656 Utica Ave", "Brooklyn, NY 11234"]}, "phone": "+17183380808", "display_phone": "(718) 338-0808", "distance": 2620.7816843470064}, {"id": "6r19fOuKhP4FA1-soLSh4A", "alias": "mr-nosh-brooklyn", "name": "Mr Nosh", "image_url": "https://s3-media3.fl.yelpcdn.com/bphoto/qXbRF5ycFBc_FJ2G8i7EUA/o.jpg", "is_closed": false, "url": "https://www.yelp.com/biz/mr-nosh-brooklyn?adjust_creative=azSZ1YV457_fpKmHVQM9Bg&utm_campaign=yelp_api_v3&utm_medium=api_v3_business_search&utm_source=azSZ1YV457_fpKmHVQM9Bg", "review_count": 26, "categories": [{"alias": "chinese", "title": "Chinese"}, {"alias": "kosher", "title": "Kosher"}], "rating": 2.5, "coordinates": {"latitude": 40.617738342656, "longitude": -73.9414300483406}, "transactions": ["pickup", "delivery"], "price": "$$$", "location": {"address1": "3323 Avenue N Corner Of E34th", "address2": "", "address3": "", "city": "Brooklyn", "zip_code": "11234", "country": "US", "state": "NY", "display_address": ["3323 Avenue N Corner Of E34th", "Brooklyn, NY 11234"]}, "phone": "+17182531400", "display_phone": "(718) 253-1400", "distance": 4315.439299830673}, {"id": "yeUMRT1tWTFUbuR_BAl_bg", "alias": "crown-fried-chicken-and-pizza-brooklyn-13", "name": "Crown Fried Chicken & Pizza", "image_url": "https://s3-media1.fl.yelpcdn.com/bphoto/dOdkvrF2buFkkCVOtVjUSw/o.jpg", "is_closed": false, "url": "https://www.yelp.com/biz/crown-fried-chicken-and-pizza-brooklyn-13?adjust_creative=azSZ1YV457_fpKmHVQM9Bg&utm_campaign=yelp_api_v3&utm_medium=api_v3_business_search&utm_source=azSZ1YV457_fpKmHVQM9Bg", "review_count": 3, "categories": [{"alias": "seafood", "title": "Seafood"}, {"alias": "burgers", "title": "Burgers"}, {"alias": "pizza", "title": "Pizza"}], "rating": 2.5, "coordinates": {"latitude": 40.65091, "longitude": -73.94542}, "transactions": ["delivery", "pickup"], "price": "$", "location": {"address1": "3402 Church Ave", "address2": null, "address3": "", "city": "Brooklyn", "zip_code": "11203", "country": "US", "state": "NY", "display_address": ["3402 Church Ave", "Brooklyn, NY 11203"]}, "phone": "+17184843377", "display_phone": "(718) 484-3377", "distance": 4102.651335077545}, {"id": "fZAlhNb11Xul_AJmPPjFcA", "alias": "super-convenience-deli-brooklyn", "name": "Super Convenience Deli", "image_url": "https://s3-media4.fl.yelpcdn.com/bphoto/RTTtlPiiCJomNbn6LeY_eQ/o.jpg", "is_closed": false, "url": "https://www.yelp.com/biz/super-convenience-deli-brooklyn?adjust_creative=azSZ1YV457_fpKmHVQM9Bg&utm_campaign=yelp_api_v3&utm_medium=api_v3_business_search&utm_source=azSZ1YV457_fpKmHVQM9Bg", "review_count": 6, "categories": [{"alias": "grocery", "title": "Grocery"}, {"alias": "burgers", "title": "Burgers"}, {"alias": "delis", "title": "Delis"}], "rating": 1.5, "coordinates": {"latitude": 40.6720809936523, "longitude": -73.9116439819336}, "transactions": ["delivery", "pickup"], "location": {"address1": "1525 E New York Ave", "address2": "", "address3": "", "city": "Brooklyn", "zip_code": "11212", "country": "US", "state": "NY", "display_address": ["1525 E New York Ave", "Brooklyn, NY 11212"]}, "phone": "+17183424193", "display_phone": "(718) 342-4193", "distance": 3758.111900235044}, {"id": "wTK5ZsBCCrDipn9B1QLdpw", "alias": "mcdonalds-brooklyn-70", "name": "McDonald's", "image_url": "https://s3-media2.fl.yelpcdn.com/bphoto/7iAtdfvVJHeCpLM9ix5V6w/o.jpg", "is_closed": false, "url": "https://www.yelp.com/biz/mcdonalds-brooklyn-70?adjust_creative=azSZ1YV457_fpKmHVQM9Bg&utm_campaign=yelp_api_v3&utm_medium=api_v3_business_search&utm_source=azSZ1YV457_fpKmHVQM9Bg", "review_count": 12, "categories": [{"alias": "hotdogs", "title": "Fast Food"}, {"alias": "burgers", "title": "Burgers"}, {"alias": "coffee", "title": "Coffee & Tea"}], "rating": 1.5, "coordinates": {"latitude": 40.669307, "longitude": -73.912406}, "transactions": ["delivery"], "price": "$", "location": {"address1": "1642 Pitkin Ave", "address2": "", "address3": "", "city": "Brooklyn", "zip_code": "11212", "country": "US", "state": "NY", "display_address": ["1642 Pitkin Ave", "Brooklyn, NY 11212"]}, "phone": "+17184849413", "display_phone": "(718) 484-9413", "distance": 3484.592080053447}, {"id": "_IFaDErzjTrJ3POOU59zIw", "alias": "kennedy-fried-chicken-and-grill-brooklyn", "name": "Kennedy Fried Chicken & Grill", "image_url": "", "is_closed": false, "url": "https://www.yelp.com/biz/kennedy-fried-chicken-and-grill-brooklyn?adjust_creative=azSZ1YV457_fpKmHVQM9Bg&utm_campaign=yelp_api_v3&utm_medium=api_v3_business_search&utm_source=azSZ1YV457_fpKmHVQM9Bg", "review_count": 4, "categories": [{"alias": "chicken_wings", "title": "Chicken Wings"}, {"alias": "burgers", "title": "Burgers"}], "rating": 3.5, "coordinates": {"latitude": 40.67096, "longitude": -73.94191}, "transactions": ["delivery", "pickup"], "location": {"address1": "255 Kingston Ave", "address2": "", "address3": null, "city": "Brooklyn", "zip_code": "11213", "country": "US", "state": "NY", "display_address": ["255 Kingston Ave", "Brooklyn, NY 11213"]}, "phone": "+17187357702", "display_phone": "(718) 735-7702", "distance": 5011.154721691446}, {"id": "LTUF17qBacEhOuHBW1GcCA", "alias": "prime-avenue-brooklyn", "name": "Prime Avenue", "image_url": "https://s3-media3.fl.yelpcdn.com/bphoto/_4HF9f-NuInDnP55xQVsig/o.jpg", "is_closed": false, "url": "https://www.yelp.com/biz/prime-avenue-brooklyn?adjust_creative=azSZ1YV457_fpKmHVQM9Bg&utm_campaign=yelp_api_v3&utm_medium=api_v3_business_search&utm_source=azSZ1YV457_fpKmHVQM9Bg", "review_count": 36, "categories": [{"alias": "salad", "title": "Salad"}, {"alias": "sandwiches", "title": "Sandwiches"}, {"alias": "kosher", "title": "Kosher"}], "rating": 3.0, "coordinates": {"latitude": 40.6660864, "longitude": -73.9423116}, "transactions": ["delivery", "pickup"], "price": "$$", "location": {"address1": "377 Kingston Ave", "address2": "", "address3": "", "city": "Brooklyn", "zip_code": "11213", "country": "US", "state": "NY", "display_address": ["377 Kingston Ave", "Brooklyn, NY 11213"]}, "phone": "+17185766665", "display_phone": "(718) 576-6665", "distance": 4677.967659593293}, {"id": "o5JjEVhGoG90zcZWuhQ79w", "alias": "mcdonalds-brooklyn-24", "name": "McDonald's", "image_url": "https://s3-media1.fl.yelpcdn.com/bphoto/pMd-1W7vYYu9asmXgFVbOw/o.jpg", "is_closed": false, "url": "https://www.yelp.com/biz/mcdonalds-brooklyn-24?adjust_creative=azSZ1YV457_fpKmHVQM9Bg&utm_campaign=yelp_api_v3&utm_medium=api_v3_business_search&utm_source=azSZ1YV457_fpKmHVQM9Bg", "review_count": 59, "categories": [{"alias": "hotdogs", "title": "Fast Food"}, {"alias": "burgers", "title": "Burgers"}, {"alias": "coffee", "title": "Coffee & Tea"}], "rating": 1.5, "coordinates": {"latitude": 40.63234, "longitude": -73.94777}, "transactions": ["delivery"], "price": "$", "location": {"address1": "2154 Nostrand Ave", "address2": "", "address3": "", "city": "Brooklyn", "zip_code": "11210", "country": "US", "state": "NY", "display_address": ["2154 Nostrand Ave", "Brooklyn, NY 11210"]}, "phone": "+17184342476", "display_phone": "(718) 434-2476", "distance": 4195.336624777892}, {"id": "8Ek-SgRrV2FdHtT2skB-2Q", "alias": "mcdonalds-brooklyn-39", "name": "McDonald's", "image_url": "https://s3-media2.fl.yelpcdn.com/bphoto/f-BA0T-_mGFy6WpCpIZCHQ/o.jpg", "is_closed": false, "url": "https://www.yelp.com/biz/mcdonalds-brooklyn-39?adjust_creative=azSZ1YV457_fpKmHVQM9Bg&utm_campaign=yelp_api_v3&utm_medium=api_v3_business_search&utm_source=azSZ1YV457_fpKmHVQM9Bg", "review_count": 39, "categories": [{"alias": "burgers", "title": "Burgers"}, {"alias": "hotdogs", "title": "Fast Food"}, {"alias": "coffee", "title": "Coffee & Tea"}], "rating": 1.5, "coordinates": {"latitude": 40.676225, "longitude": -73.890678}, "transactions": ["delivery"], "price": "$", "location": {"address1": "2800 Atlantic Ave", "address2": "", "address3": "", "city": "Brooklyn", "zip_code": "11207", "country": "US", "state": "NY", "display_address": ["2800 Atlantic Ave", "Brooklyn, NY 11207"]}, "phone": "+17186477818", "display_phone": "(718) 647-7818", "distance": 4133.634140503154}, {"id": "SJMS1EJ8KYGX375cVEUNeQ", "alias": "annas-cafe-brooklyn", "name": "Anna's Cafe", "image_url": "https://s3-media2.fl.yelpcdn.com/bphoto/5PkJKXPGo5sX3n6eFRTudA/o.jpg", "is_closed": false, "url": "https://www.yelp.com/biz/annas-cafe-brooklyn?adjust_creative=azSZ1YV457_fpKmHVQM9Bg&utm_campaign=yelp_api_v3&utm_medium=api_v3_business_search&utm_source=azSZ1YV457_fpKmHVQM9Bg", "review_count": 25, "categories": [{"alias": "cafes", "title": "Cafes"}], "rating": 3.0, "coordinates": {"latitude": 40.629386, "longitude": -73.947525}, "transactions": ["delivery", "pickup"], "price": "$", "location": {"address1": "2925 Ave I", "address2": "", "address3": "", "city": "Brooklyn", "zip_code": "11210", "country": "US", "state": "NY", "display_address": ["2925 Ave I", "Brooklyn, NY 11210"]}, "phone": "+17189517617", "display_phone": "(718) 951-7617", "distance": 4237.539598086784}, {"id": "tSnlNKHiccnOVfbYQkDhrA", "alias": "rite-aid-brooklyn-64", "name": "Rite Aid", "image_url": "https://s3-media4.fl.yelpcdn.com/bphoto/d085byHGwR4hzkM9Z6557w/o.jpg", "is_closed": false, "url": "https://www.yelp.com/biz/rite-aid-brooklyn-64?adjust_creative=azSZ1YV457_fpKmHVQM9Bg&utm_campaign=yelp_api_v3&utm_medium=api_v3_business_search&utm_source=azSZ1YV457_fpKmHVQM9Bg", "review_count": 33, "categories": [{"alias": "drugstores", "title": "Drugstores"}, {"alias": "convenience", "title": "Convenience Stores"}], "rating": 1.5, "coordinates": {"latitude": 40.67857, "longitude": -73.92073}, "transactions": ["delivery"], "price": "$$", "location": {"address1": "1950 Fulton St", "address2": "", "address3": "", "city": "Brooklyn", "zip_code": "11233", "country": "US", "state": "NY", "display_address": ["1950 Fulton St", "Brooklyn, NY 11233"]}, "phone": "+17184930854", "display_phone": "(718) 493-0854", "distance": 4698.916022843868}, {"id": "mjolJ5KNale0XXBSEzd1ww", "alias": "mcdonalds-brooklyn-9", "name": "McDonald's", "image_url": "https://s3-media2.fl.yelpcdn.com/bphoto/grnHz2mO-8novzOxMDyx7g/o.jpg", "is_closed": false, "url": "https://www.yelp.com/biz/mcdonalds-brooklyn-9?adjust_creative=azSZ1YV457_fpKmHVQM9Bg&utm_campaign=yelp_api_v3&utm_medium=api_v3_business_search&utm_source=azSZ1YV457_fpKmHVQM9Bg", "review_count": 20, "categories": [{"alias": "burgers", "title": "Burgers"}, {"alias": "hotdogs", "title": "Fast Food"}, {"alias": "coffee", "title": "Coffee & Tea"}], "rating": 2.0, "coordinates": {"latitude": 40.6775524440833, "longitude": -73.8977430466271}, "transactions": ["delivery"], "price": "$", "location": {"address1": "15 Jamaica Ave", "address2": "", "address3": "", "city": "Brooklyn", "zip_code": "11207", "country": "US", "state": "NY", "display_address": ["15 Jamaica Ave", "Brooklyn, NY 11207"]}, "phone": "+17183427253", "display_phone": "(718) 342-7253", "distance": 4220.131187958779}, {"id": "rKNskvfrR6bTsPFI2-QOGw", "alias": "mcdonalds-brooklyn-28", "name": "McDonald's", "image_url": "https://s3-media2.fl.yelpcdn.com/bphoto/cM3Cr33LAmt_04PFVHfXuA/o.jpg", "is_closed": false, "url": "https://www.yelp.com/biz/mcdonalds-brooklyn-28?adjust_creative=azSZ1YV457_fpKmHVQM9Bg&utm_campaign=yelp_api_v3&utm_medium=api_v3_business_search&utm_source=azSZ1YV457_fpKmHVQM9Bg", "review_count": 16, "categories": [{"alias": "burgers", "title": "Burgers"}, {"alias": "hotdogs", "title": "Fast Food"}, {"alias": "coffee", "title": "Coffee & Tea"}], "rating": 2.0, "coordinates": {"latitude": 40.6701465058831, "longitude": -73.8603262603283}, "transactions": ["delivery"], "price": "$", "location": {"address1": "2797 Linden Blvd", "address2": "", "address3": "", "city": "Brooklyn", "zip_code": "11208", "country": "US", "state": "NY", "display_address": ["2797 Linden Blvd", "Brooklyn, NY 11208"]}, "phone": "+17188274227", "display_phone": "(718) 827-4227", "distance": 4719.626307901355}, {"id": "otKbdx6r5mWiyz2mR5RzPg", "alias": "burger-king-brooklyn-37", "name": "Burger King", "image_url": "https://s3-media3.fl.yelpcdn.com/bphoto/YGXzgYLzSHjIuoDsJM6rAw/o.jpg", "is_closed": false, "url": "https://www.yelp.com/biz/burger-king-brooklyn-37?adjust_creative=azSZ1YV457_fpKmHVQM9Bg&utm_campaign=yelp_api_v3&utm_medium=api_v3_business_search&utm_source=azSZ1YV457_fpKmHVQM9Bg", "review_count": 19, "categories": [{"alias": "hotdogs", "title": "Fast Food"}, {"alias": "burgers", "title": "Burgers"}], "rating": 2.0, "coordinates": {"latitude": 40.6505596151693, "longitude": -73.9498141407966}, "transactions": ["delivery"], "price": "$", "location": {"address1": "2848 Church Ave", "address2": "", "address3": null, "city": "Brooklyn", "zip_code": "11226", "country": "US", "state": "NY", "display_address": ["2848 Church Ave", "Brooklyn, NY 11226"]}, "phone": "+17184839813", "display_phone": "(718) 483-9813", "distance": 4440.904373872354}, {"id": "ZEUwhaOAxFYI9bmRVekrOA", "alias": "crown-fried-chicken-brooklyn-19", "name": "Crown Fried Chicken", "image_url": "https://s3-media3.fl.yelpcdn.com/bphoto/hMTGS6l300iTYRInDWAoaw/o.jpg", "is_closed": false, "url": "https://www.yelp.com/biz/crown-fried-chicken-brooklyn-19?adjust_creative=azSZ1YV457_fpKmHVQM9Bg&utm_campaign=yelp_api_v3&utm_medium=api_v3_business_search&utm_source=azSZ1YV457_fpKmHVQM9Bg", "review_count": 5, "categories": [{"alias": "chicken_wings", "title": "Chicken Wings"}], "rating": 2.0, "coordinates": {"latitude": 40.65614, "longitude": -73.94998}, "transactions": ["delivery", "pickup"], "location": {"address1": "1263 Nostrand Ave", "address2": "", "address3": "", "city": "Brooklyn", "zip_code": "11226", "country": "US", "state": "NY", "display_address": ["1263 Nostrand Ave", "Brooklyn, NY 11226"]}, "phone": "+17182841177", "display_phone": "(718) 284-1177", "distance": 4660.423570446185}, {"id": "yS_M-QQ-dbO78dOy1-7xWQ", "alias": "burger-king-brooklyn-5", "name": "Burger King", "image_url": "https://s3-media2.fl.yelpcdn.com/bphoto/Bxbu1vFjgcmm8jCWFPD-Ww/o.jpg", "is_closed": false, "url": "https://www.yelp.com/biz/burger-king-brooklyn-5?adjust_creative=azSZ1YV457_fpKmHVQM9Bg&utm_campaign=yelp_api_v3&utm_medium=api_v3_business_search&utm_source=azSZ1YV457_fpKmHVQM9Bg", "review_count": 17, "categories": [{"alias": "burgers", "title": "Burgers"}, {"alias": "hotdogs", "title": "Fast Food"}], "rating": 3.0, "coordinates": {"latitude": 40.6326442708195, "longitude": -73.9482356607913}, "transactions": ["delivery"], "price": "$", "location": {"address1": "13 Hillel Pl", "address2": "", "address3": "", "city": "Brooklyn", "zip_code": "11210", "country": "US", "state": "NY", "display_address": ["13 Hillel Pl", "Brooklyn, NY 11210"]}, "phone": "+17182534002", "display_phone": "(718) 253-4002", "distance": 4210.282979252714}, {"id": "W_R_AwTr24xiqKvp8P9FWQ", "alias": "subsational-brooklyn-2", "name": "Subsational", "image_url": "https://s3-media1.fl.yelpcdn.com/bphoto/dDmBMgKh6MkMZPkKIucGSA/o.jpg", "is_closed": false, "url": "https://www.yelp.com/biz/subsational-brooklyn-2?adjust_creative=azSZ1YV457_fpKmHVQM9Bg&utm_campaign=yelp_api_v3&utm_medium=api_v3_business_search&utm_source=azSZ1YV457_fpKmHVQM9Bg", "review_count": 83, "categories": [{"alias": "sandwiches", "title": "Sandwiches"}, {"alias": "hotdogs", "title": "Fast Food"}, {"alias": "kosher", "title": "Kosher"}], "rating": 2.5, "coordinates": {"latitude": 40.63202, "longitude": -73.94852}, "transactions": ["delivery", "pickup"], "price": "$$", "location": {"address1": "2901 Campus Rd", "address2": "", "address3": "", "city": "Brooklyn", "zip_code": "11210", "country": "US", "state": "NY", "display_address": ["2901 Campus Rd", "Brooklyn, NY 11210"]}, "phone": "+17189984545", "display_phone": "(718) 998-4545", "distance": 4232.405617882052}, {"id": "TiICI-Zcr47fN4UohvlqKQ", "alias": "ave-r-mini-mart-brooklyn", "name": "Ave R Mini Mart", "image_url": "https://s3-media4.fl.yelpcdn.com/bphoto/DV3J_Z2mJDiggGVGtwECNw/o.jpg", "is_closed": false, "url": "https://www.yelp.com/biz/ave-r-mini-mart-brooklyn?adjust_creative=azSZ1YV457_fpKmHVQM9Bg&utm_campaign=yelp_api_v3&utm_medium=api_v3_business_search&utm_source=azSZ1YV457_fpKmHVQM9Bg", "review_count": 21, "categories": [{"alias": "breakfast_brunch", "title": "Breakfast & Brunch"}, {"alias": "delis", "title": "Delis"}, {"alias": "sandwiches", "title": "Sandwiches"}], "rating": 4.0, "coordinates": {"latitude": 40.607131, "longitude": -73.943336}, "transactions": ["delivery", "pickup"], "price": "$", "location": {"address1": "2924 Ave R", "address2": "", "address3": "", "city": "Brooklyn", "zip_code": "11229", "country": "US", "state": "NY", "display_address": ["2924 Ave R", "Brooklyn, NY 11229"]}, "phone": "+17183362644", "display_phone": "(718) 336-2644", "distance": 5186.878417705118}, "businesses", "businesses", "businesses", "businesses", "businesses", "businesses", "businesses", "businesses", "businesses", "businesses", "businesses", "businesses", "businesses", "businesses", "businesses", "businesses", "businesses", "businesses", "businesses", "businesses", "businesses", "businesses", "businesses", "businesses", "businesses", "businesses", "businesses", "businesses", "businesses", "businesses", "businesses", "businesses", "businesses", "businesses", "businesses", "businesses", "businesses", "businesses", "businesses", "businesses", "businesses", "businesses", "businesses", "businesses", "businesses", "businesses", "businesses", "businesses", "businesses", "businesses", "businesses", "businesses", "businesses", "businesses", "businesses", "businesses", "businesses", "businesses", "businesses", "businesses", "businesses", "businesses", "businesses", "businesses", "businesses", "businesses", "businesses", "businesses", "businesses", "businesses", "businesses", "businesses", "businesses", "businesses", "businesses", "businesses", "businesses", "businesses", "businesses", "businesses", "businesses", "businesses", "businesses", "businesses", "businesses", "businesses", "businesses", "businesses", "businesses", "businesses", "businesses", "businesses", "businesses", "businesses", "businesses", "businesses", "businesses", "businesses", "businesses", "businesses", "businesses", "businesses", "businesses", "businesses", "businesses", "businesses", "businesses", "businesses", "businesses", "businesses", "businesses", "businesses", "businesses", "businesses", "businesses", "businesses", "businesses", "businesses", "businesses", "businesses", "businesses", "businesses", "businesses", "businesses", "businesses", "businesses", "businesses", "businesses", "businesses", "businesses", "businesses", "businesses", "businesses", "businesses", "businesses", "businesses", "businesses", "businesses", "businesses", "businesses", "businesses", "businesses", "businesses", "businesses", "businesses", "businesses", "businesses", "businesses", "businesses", "businesses", "businesses", "businesses", "businesses", "businesses", "businesses", "businesses", "businesses", "businesses", "businesses", "businesses", "businesses", "businesses", "businesses", "businesses", "businesses", "businesses", "businesses", "businesses", "businesses", "businesses", "businesses", "businesses", "businesses", "businesses", "businesses", "businesses", "businesses", "businesses", "businesses", "businesses", "businesses", "businesses", "businesses", "businesses", "businesses", "businesses", "businesses", "businesses", "businesses", "businesses", "businesses", "businesses", "businesses", "businesses", "businesses", "businesses", "businesses", "businesses", "businesses", "businesses", "businesses", "businesses", "businesses", "businesses", "businesses", "businesses", "businesses", "businesses", "businesses", "businesses", "businesses", "businesses", "businesses", "businesses", "businesses", "businesses", "businesses", "businesses", "businesses", "businesses", "businesses", "businesses", "businesses", "businesses", "businesses", "businesses", "businesses", "businesses", "businesses", "businesses", "businesses", "businesses", "businesses", "businesses", "businesses", "businesses", "businesses", "businesses", "businesses", "businesses", "businesses", "businesses", "businesses", "businesses", "businesses", "businesses", "businesses", "businesses", "businesses", "businesses", "businesses", "businesses", "businesses", "businesses", "businesses", "businesses", "businesses", "businesses", "businesses", "businesses", "businesses", "businesses", "businesses", "businesses", "businesses", "businesses", "businesses", "businesses", "businesses", "businesses", "businesses", "businesses", "businesses", "businesses", "businesses", "businesses", "businesses", "businesses", "businesses", "businesses", "businesses", "businesses", "businesses", "businesses", "businesses", "businesses", "businesses", "businesses", "businesses", "businesses", "businesses", "businesses", "businesses", "businesses", "businesses", "businesses", "businesses", "businesses", "businesses", "businesses", "businesses", "businesses", "businesses", "businesses", "businesses", "businesses", "businesses", "businesses", "businesses", "businesses", "businesses", "businesses", "businesses", "businesses", "businesses", "businesses", "businesses", "businesses", "businesses", "businesses", "businesses", "businesses", "businesses", "businesses", "businesses", "businesses", "businesses", "businesses", "businesses", "businesses", "businesses", "businesses", "businesses", "businesses", "businesses", "businesses", "businesses", "businesses", "businesses", "businesses"]